{
  "type": "FeatureCollection",
  "features": [
    {"type":"Feature","properties":{"stop_url":null,"stop_lat":"53.457322","stop_desc":null,"stop_code":"4216","stop_lon":"-113.51597","zone_id":"1EDM","stop_name":"Century Park Transit Centre Bay P","location_type":"0","stop_id":"4216","parent_station":null},"geometry":{"type":"Point","coordinates":[-113.51597,53.457322]}},{"type":"Feature","properties":{"stop_url":null,"stop_lat":"53.576731","stop_desc":null,"stop_code":"1965","stop_lon":"-113.541748","zone_id":"1EDM","stop_name":"127 Street & 122 Avenue","location_type":"0","stop_id":"1965","parent_station":null},"geometry":{"type":"Point","coordinates":[-113.541748,53.576731]}},{"type":"Feature","properties":{"stop_url":null,"stop_lat":"53.510218","stop_desc":null,"stop_code":"22655","stop_lon":"-113.479844","zone_id":"1EDM","stop_name":"97 Street & 74 Avenue","location_type":"0","stop_id":"22655","parent_station":null},"geometry":{"type":"Point","coordinates":[-113.479844,53.510218]}},{"type":"Feature","properties":{"stop_url":null,"stop_lat":"53.570427","stop_desc":null,"stop_code":"1091","stop_lon":"-113.411149","zone_id":"1EDM","stop_name":"45 Street & 118 Avenue","location_type":"0","stop_id":"1091","parent_station":null},"geometry":{"type":"Point","coordinates":[-113.411149,53.570427]}},{"type":"Feature","properties":{"stop_url":null,"stop_lat":"53.397267","stop_desc":null,"stop_code":"99208","stop_lon":"-113.527505","zone_id":"1EDM","stop_name":"Allard Road & Allard Boulevard SW","location_type":"0","stop_id":"99208","parent_station":null},"geometry":{"type":"Point","coordinates":[-113.527505,53.397267]}},{"type":"Feature","properties":{"stop_url":null,"stop_lat":"53.646243","stop_desc":null,"stop_code":"0797","stop_lon":"-113.662772","zone_id":"2STA","stop_name":"Giroux Rd & Dunfield Cr","location_type":"0","stop_id":"A0797","parent_station":null},"geometry":{"type":"Point","coordinates":[-113.662772,53.646243]}},{"type":"Feature","properties":{"stop_url":null,"stop_lat":"53.623073","stop_desc":null,"stop_code":"0378","stop_lon":"-113.612672","zone_id":"2STA","stop_name":"St Albert Trail & Gate Avenue","location_type":"0","stop_id":"A0378","parent_station":null},"geometry":{"type":"Point","coordinates":[-113.612672,53.623073]}},{"type":"Feature","properties":{"stop_url":null,"stop_lat":"53.447551","stop_desc":null,"stop_code":"4283","stop_lon":"-113.535795","zone_id":"1EDM","stop_name":"115A Street & 15 Avenue","location_type":"0","stop_id":"4283","parent_station":null},"geometry":{"type":"Point","coordinates":[-113.535795,53.447551]}},{"type":"Feature","properties":{"stop_url":null,"stop_lat":"53.485695","stop_desc":null,"stop_code":"5715","stop_lon":"-113.647403","zone_id":"1EDM","stop_name":"187 Street & 49 Avenue","location_type":"0","stop_id":"5715","parent_station":null},"geometry":{"type":"Point","coordinates":[-113.647403,53.485695]}},{"type":"Feature","properties":{"stop_url":null,"stop_lat":"53.666904","stop_desc":null,"stop_code":"0026","stop_lon":"-113.617819","zone_id":"2STA","stop_name":"Erin Ridge Dr & Eastgate Way","location_type":"0","stop_id":"A0026","parent_station":null},"geometry":{"type":"Point","coordinates":[-113.617819,53.666904]}},{"type":"Feature","properties":{"stop_url":null,"stop_lat":"53.493632","stop_desc":null,"stop_code":"2879","stop_lon":"-113.504294","zone_id":"1EDM","stop_name":"106 Street & 56 Avenue","location_type":"0","stop_id":"2879","parent_station":null},"geometry":{"type":"Point","coordinates":[-113.504294,53.493632]}},{"type":"Feature","properties":{"stop_url":null,"stop_lat":"53.46029","stop_desc":null,"stop_code":"3360","stop_lon":"-113.430279","zone_id":"1EDM","stop_name":"Youville Drive W & 29 Avenue","location_type":"0","stop_id":"3360","parent_station":null},"geometry":{"type":"Point","coordinates":[-113.430279,53.46029]}},{"type":"Feature","properties":{"stop_url":null,"stop_lat":"53.633582","stop_desc":null,"stop_code":"0133","stop_lon":"-113.639723","zone_id":"2STA","stop_name":"Mission Ave & St Vital Ave","location_type":"0","stop_id":"A0133","parent_station":null},"geometry":{"type":"Point","coordinates":[-113.639723,53.633582]}},{"type":"Feature","properties":{"stop_url":null,"stop_lat":"53.655005","stop_desc":null,"stop_code":"0421","stop_lon":"-113.637934","zone_id":"2STA","stop_name":"Deerbourne Dr & Doolan Pl","location_type":"0","stop_id":"A0421","parent_station":null},"geometry":{"type":"Point","coordinates":[-113.637934,53.655005]}},{"type":"Feature","properties":{"stop_url":null,"stop_lat":"53.485233","stop_desc":null,"stop_code":"2452","stop_lon":"-113.494994","zone_id":"1EDM","stop_name":"Calgary Trail & 48 Avenue","location_type":"0","stop_id":"2452","parent_station":null},"geometry":{"type":"Point","coordinates":[-113.494994,53.485233]}},{"type":"Feature","properties":{"stop_url":null,"stop_lat":"53.56614","stop_desc":null,"stop_code":"5467","stop_lon":"-113.590538","zone_id":"1EDM","stop_name":"156 Street & 116 Avenue","location_type":"0","stop_id":"5467","parent_station":null},"geometry":{"type":"Point","coordinates":[-113.590538,53.56614]}},{"type":"Feature","properties":{"stop_url":null,"stop_lat":"53.527597","stop_desc":null,"stop_code":"5198","stop_lon":"-113.565526","zone_id":"1EDM","stop_name":"142 Street & Valleyview Drive","location_type":"0","stop_id":"5198","parent_station":null},"geometry":{"type":"Point","coordinates":[-113.565526,53.527597]}},{"type":"Feature","properties":{"stop_url":null,"stop_lat":"53.534155","stop_desc":null,"stop_code":"1033","stop_lon":"-113.280208","zone_id":"4SCT","stop_name":"Georgian Wy & Greengrove Av","location_type":"0","stop_id":"S1033","parent_station":null},"geometry":{"type":"Point","coordinates":[-113.280208,53.534155]}},{"type":"Feature","properties":{"stop_url":null,"stop_lat":"53.607207","stop_desc":null,"stop_code":"7133","stop_lon":"-113.443059","zone_id":"1EDM","stop_name":"66 Street & 146 Avenue","location_type":"0","stop_id":"7133","parent_station":null},"geometry":{"type":"Point","coordinates":[-113.443059,53.607207]}},{"type":"Feature","properties":{"stop_url":null,"stop_lat":"53.579569","stop_desc":null,"stop_code":"7638","stop_lon":"-113.38389","zone_id":"1EDM","stop_name":"Victoria Trail & Hermitage Road","location_type":"0","stop_id":"7638","parent_station":null},"geometry":{"type":"Point","coordinates":[-113.38389,53.579569]}},{"type":"Feature","properties":{"stop_url":null,"stop_lat":"53.474249","stop_desc":null,"stop_code":"3288","stop_lon":"-113.438316","zone_id":"1EDM","stop_name":"66 Street & 38 Avenue","location_type":"0","stop_id":"3288","parent_station":null},"geometry":{"type":"Point","coordinates":[-113.438316,53.474249]}},{"type":"Feature","properties":{"stop_url":null,"stop_lat":"53.442967","stop_desc":null,"stop_code":"3146","stop_lon":"-113.407592","zone_id":"1EDM","stop_name":"42 Street & Mill Woods Road S","location_type":"0","stop_id":"3146","parent_station":null},"geometry":{"type":"Point","coordinates":[-113.407592,53.442967]}},{"type":"Feature","properties":{"stop_url":null,"stop_lat":"53.578219","stop_desc":null,"stop_code":"7657","stop_lon":"-113.379728","zone_id":"1EDM","stop_name":"Hyndman Crescent & Hermitage Road","location_type":"0","stop_id":"7657","parent_station":null},"geometry":{"type":"Point","coordinates":[-113.379728,53.578219]}},{"type":"Feature","properties":{"stop_url":null,"stop_lat":"53.455121","stop_desc":null,"stop_code":"4814","stop_lon":"-113.579268","zone_id":"1EDM","stop_name":"Leger Transit Centre Bay N","location_type":"0","stop_id":"4814","parent_station":null},"geometry":{"type":"Point","coordinates":[-113.579268,53.455121]}},{"type":"Feature","properties":{"stop_url":null,"stop_lat":"53.491939","stop_desc":null,"stop_code":"22083","stop_lon":"-113.479297","zone_id":"1EDM","stop_name":"97 Street & 56 Avenue","location_type":"0","stop_id":"22083","parent_station":null},"geometry":{"type":"Point","coordinates":[-113.479297,53.491939]}},{"type":"Feature","properties":{"stop_url":null,"stop_lat":"53.620847","stop_desc":null,"stop_code":"7959","stop_lon":"-113.46818","zone_id":"1EDM","stop_name":"82 Street & 160 Avenue","location_type":"0","stop_id":"7959","parent_station":null},"geometry":{"type":"Point","coordinates":[-113.46818,53.620847]}},{"type":"Feature","properties":{"stop_url":null,"stop_lat":"53.636309","stop_desc":null,"stop_code":"77851","stop_lon":"-113.42641","zone_id":"1EDM","stop_name":"McConachie Boulevard & 175 Avenue","location_type":"0","stop_id":"77851","parent_station":null},"geometry":{"type":"Point","coordinates":[-113.42641,53.636309]}},{"type":"Feature","properties":{"stop_url":null,"stop_lat":"53.592286","stop_desc":null,"stop_code":"7266","stop_lon":"-113.47147","zone_id":"1EDM","stop_name":"85 Street & 132 Avenue","location_type":"0","stop_id":"7266","parent_station":null},"geometry":{"type":"Point","coordinates":[-113.47147,53.592286]}},{"type":"Feature","properties":{"stop_url":null,"stop_lat":"53.478568","stop_desc":null,"stop_code":"3710","stop_lon":"-113.368005","zone_id":"1EDM","stop_name":"Meadows Transit Centre Bay J","location_type":"0","stop_id":"3710","parent_station":null},"geometry":{"type":"Point","coordinates":[-113.368005,53.478568]}},{"type":"Feature","properties":{"stop_url":null,"stop_lat":"53.62128","stop_desc":null,"stop_code":"0011","stop_lon":"-113.63609","zone_id":"2STA","stop_name":"Gatewood Ave & Grenfell Ave","location_type":"0","stop_id":"A0011","parent_station":null},"geometry":{"type":"Point","coordinates":[-113.63609,53.62128]}},{"type":"Feature","properties":{"stop_url":null,"stop_lat":"53.49689","stop_desc":null,"stop_code":"2895","stop_lon":"-113.511981","zone_id":"1EDM","stop_name":"109 Street & 60 Avenue","location_type":"0","stop_id":"2895","parent_station":null},"geometry":{"type":"Point","coordinates":[-113.511981,53.49689]}},{"type":"Feature","properties":{"stop_url":null,"stop_lat":"53.482046","stop_desc":null,"stop_code":"3449","stop_lon":"-113.411949","zone_id":"1EDM","stop_name":"Jackson Road & 44 Avenue","location_type":"0","stop_id":"3449","parent_station":null},"geometry":{"type":"Point","coordinates":[-113.411949,53.482046]}},{"type":"Feature","properties":{"stop_url":null,"stop_lat":"53.458778","stop_desc":null,"stop_code":"4124","stop_lon":"-113.529923","zone_id":"1EDM","stop_name":"Saddleback Road & 26 Avenue","location_type":"0","stop_id":"4124","parent_station":null},"geometry":{"type":"Point","coordinates":[-113.529923,53.458778]}},{"type":"Feature","properties":{"stop_url":null,"stop_lat":"53.647313","stop_desc":null,"stop_code":"0064","stop_lon":"-113.588797","zone_id":"2STA","stop_name":"Kingswood Blvd & Kingsdale Cres","location_type":"0","stop_id":"A0064","parent_station":null},"geometry":{"type":"Point","coordinates":[-113.588797,53.647313]}},{"type":"Feature","properties":{"stop_url":null,"stop_lat":"53.602754","stop_desc":null,"stop_code":"7240","stop_lon":"-113.382042","zone_id":"1EDM","stop_name":"26 Street & 139 Avenue","location_type":"0","stop_id":"7240","parent_station":null},"geometry":{"type":"Point","coordinates":[-113.382042,53.602754]}},{"type":"Feature","properties":{"stop_url":null,"stop_lat":"53.458543","stop_desc":null,"stop_code":"3012","stop_lon":"-113.445898","zone_id":"1EDM","stop_name":"Lakewood 3012","location_type":"0","stop_id":"3012","parent_station":null},"geometry":{"type":"Point","coordinates":[-113.445898,53.458543]}},{"type":"Feature","properties":{"stop_url":null,"stop_lat":"53.40135","stop_desc":null,"stop_code":"99057","stop_lon":"-113.549998","zone_id":"1EDM","stop_name":"Desrochers Drive & 35 Avenue SW","location_type":"0","stop_id":"99057","parent_station":null},"geometry":{"type":"Point","coordinates":[-113.549998,53.40135]}},{"type":"Feature","properties":{"stop_url":null,"stop_lat":"53.523249","stop_desc":null,"stop_code":"9184","stop_lon":"-113.27038","zone_id":"4SCT","stop_name":"Granada Blvd & Colwil Blvd","location_type":"0","stop_id":"S9184","parent_station":null},"geometry":{"type":"Point","coordinates":[-113.27038,53.523249]}},{"type":"Feature","properties":{"stop_url":null,"stop_lat":"53.579017","stop_desc":null,"stop_code":"1932","stop_lon":"-113.541323","zone_id":"1EDM","stop_name":"127 Street & 124 Avenue","location_type":"0","stop_id":"1932","parent_station":null},"geometry":{"type":"Point","coordinates":[-113.541323,53.579017]}},{"type":"Feature","properties":{"stop_url":null,"stop_lat":"53.606838","stop_desc":null,"stop_code":"7144","stop_lon":"-113.41947","zone_id":"1EDM","stop_name":"51 Street & 144 Avenue","location_type":"0","stop_id":"7144","parent_station":null},"geometry":{"type":"Point","coordinates":[-113.41947,53.606838]}},{"type":"Feature","properties":{"stop_url":null,"stop_lat":"53.397409","stop_desc":null,"stop_code":"9404","stop_lon":"-113.529745","zone_id":"1EDM","stop_name":"Allard Boulevard & Allbright Square SW","location_type":"0","stop_id":"9404","parent_station":null},"geometry":{"type":"Point","coordinates":[-113.529745,53.397409]}},{"type":"Feature","properties":{"stop_url":null,"stop_lat":"53.513153","stop_desc":null,"stop_code":"9353","stop_lon":"-113.270316","zone_id":"4SCT","stop_name":"Clover Bar Rd & Wye Rd","location_type":"0","stop_id":"S9353","parent_station":null},"geometry":{"type":"Point","coordinates":[-113.270316,53.513153]}},{"type":"Feature","properties":{"stop_url":null,"stop_lat":"53.669942","stop_desc":null,"stop_code":"0250","stop_lon":"-113.633036","zone_id":"2STA","stop_name":"Element Dr & RONA","location_type":"0","stop_id":"A0250","parent_station":null},"geometry":{"type":"Point","coordinates":[-113.633036,53.669942]}},{"type":"Feature","properties":{"stop_url":null,"stop_lat":"53.508611","stop_desc":null,"stop_code":"5174","stop_lon":"-113.57811","zone_id":"1EDM","stop_name":"149 Street & 76 Avenue","location_type":"0","stop_id":"5174","parent_station":null},"geometry":{"type":"Point","coordinates":[-113.57811,53.508611]}},{"type":"Feature","properties":{"stop_url":null,"stop_lat":"53.635691","stop_desc":null,"stop_code":"7487","stop_lon":"-113.479556","zone_id":"1EDM","stop_name":"91 Street & 174 Avenue","location_type":"0","stop_id":"7487","parent_station":null},"geometry":{"type":"Point","coordinates":[-113.479556,53.635691]}},{"type":"Feature","properties":{"stop_url":null,"stop_lat":"53.51365","stop_desc":null,"stop_code":"6012","stop_lon":"-113.317499","zone_id":"4SCT","stop_name":"Fir St & Willow St","location_type":"0","stop_id":"S6012","parent_station":null},"geometry":{"type":"Point","coordinates":[-113.317499,53.51365]}},{"type":"Feature","properties":{"stop_url":null,"stop_lat":"53.516731","stop_desc":null,"stop_code":"2428","stop_lon":"-113.476632","zone_id":"1EDM","stop_name":"96 Street & 81 Avenue","location_type":"0","stop_id":"2428","parent_station":null},"geometry":{"type":"Point","coordinates":[-113.476632,53.516731]}},{"type":"Feature","properties":{"stop_url":null,"stop_lat":"53.703097","stop_desc":null,"stop_code":"3002","stop_lon":"-113.225705","zone_id":"6FST","stop_name":"99 Avenue and Highway 15 SB","location_type":"0","stop_id":"F3002","parent_station":null},"geometry":{"type":"Point","coordinates":[-113.225705,53.703097]}},{"type":"Feature","properties":{"stop_url":null,"stop_lat":"53.442694","stop_desc":null,"stop_code":"3100","stop_lon":"-113.491572","zone_id":"1EDM","stop_name":"102 Street & 15 Avenue","location_type":"0","stop_id":"3100","parent_station":null},"geometry":{"type":"Point","coordinates":[-113.491572,53.442694]}},{"type":"Feature","properties":{"stop_url":null,"stop_lat":"53.570455","stop_desc":null,"stop_code":"1469","stop_lon":"-113.484491","zone_id":"1EDM","stop_name":"93 Street & 118 Avenue","location_type":"0","stop_id":"1469","parent_station":null},"geometry":{"type":"Point","coordinates":[-113.484491,53.570455]}},{"type":"Feature","properties":{"stop_url":null,"stop_lat":"53.415364","stop_desc":null,"stop_code":"9337","stop_lon":"-113.435941","zone_id":"1EDM","stop_name":"61 Street & Watt Drive SW","location_type":"0","stop_id":"9337","parent_station":null},"geometry":{"type":"Point","coordinates":[-113.435941,53.415364]}},{"type":"Feature","properties":{"stop_url":null,"stop_lat":"53.519398","stop_desc":null,"stop_code":"5359","stop_lon":"-113.595722","zone_id":"1EDM","stop_name":"159 Street & 87 Avenue","location_type":"0","stop_id":"5359","parent_station":null},"geometry":{"type":"Point","coordinates":[-113.595722,53.519398]}},{"type":"Feature","properties":{"stop_url":null,"stop_lat":"53.488155","stop_desc":null,"stop_code":"2949","stop_lon":"-113.522083","zone_id":"1EDM","stop_name":"Malmo Road & 51 Avenue","location_type":"0","stop_id":"2949","parent_station":null},"geometry":{"type":"Point","coordinates":[-113.522083,53.488155]}},{"type":"Feature","properties":{"stop_url":null,"stop_lat":"53.477291","stop_desc":null,"stop_code":"88246","stop_lon":"-113.671709","zone_id":"1EDM","stop_name":"199 Streeet & Lessard Road","location_type":"0","stop_id":"88246","parent_station":null},"geometry":{"type":"Point","coordinates":[-113.671709,53.477291]}},{"type":"Feature","properties":{"stop_url":null,"stop_lat":"53.57024","stop_desc":null,"stop_code":"1156","stop_lon":"-113.390784","zone_id":"1EDM","stop_name":"32 Street & 118 Avenue","location_type":"0","stop_id":"1156","parent_station":null},"geometry":{"type":"Point","coordinates":[-113.390784,53.57024]}},{"type":"Feature","properties":{"stop_url":null,"stop_lat":"53.561616","stop_desc":null,"stop_code":"8802","stop_lon":"-113.316353","zone_id":"4SCT","stop_name":"Premier Wy & Portage Ln","location_type":"0","stop_id":"S8802","parent_station":null},"geometry":{"type":"Point","coordinates":[-113.316353,53.561616]}},{"type":"Feature","properties":{"stop_url":null,"stop_lat":"53.543017","stop_desc":null,"stop_code":"55353","stop_lon":"-113.611726","zone_id":"1EDM","stop_name":"Mayfield Common","location_type":"0","stop_id":"55353","parent_station":null},"geometry":{"type":"Point","coordinates":[-113.611726,53.543017]}},{"type":"Feature","properties":{"stop_url":null,"stop_lat":"53.470256","stop_desc":null,"stop_code":"3603","stop_lon":"-113.36196","zone_id":"1EDM","stop_name":"14 Street & Tamarack Green","location_type":"0","stop_id":"3603","parent_station":null},"geometry":{"type":"Point","coordinates":[-113.36196,53.470256]}},{"type":"Feature","properties":{"stop_url":null,"stop_lat":"53.502694","stop_desc":null,"stop_code":"2706","stop_lon":"-113.528964","zone_id":"1EDM","stop_name":"South Campus Fort Edmonton Transit Centre Bay F","location_type":"0","stop_id":"2706","parent_station":null},"geometry":{"type":"Point","coordinates":[-113.528964,53.502694]}},{"type":"Feature","properties":{"stop_url":null,"stop_lat":"53.517994","stop_desc":null,"stop_code":"2680","stop_lon":"-113.510829","zone_id":"1EDM","stop_name":"109 Street & 82 Avenue","location_type":"0","stop_id":"2680","parent_station":null},"geometry":{"type":"Point","coordinates":[-113.510829,53.517994]}},{"type":"Feature","properties":{"stop_url":null,"stop_lat":"53.462837","stop_desc":null,"stop_code":"4470","stop_lon":"-113.578905","zone_id":"1EDM","stop_name":"Carter Crest Road & Cheriton Crescent W","location_type":"0","stop_id":"4470","parent_station":null},"geometry":{"type":"Point","coordinates":[-113.578905,53.462837]}},{"type":"Feature","properties":{"stop_url":null,"stop_lat":"53.471758","stop_desc":null,"stop_code":"4488","stop_lon":"-113.571723","zone_id":"1EDM","stop_name":"Bulyea Road & Burley Road N","location_type":"0","stop_id":"4488","parent_station":null},"geometry":{"type":"Point","coordinates":[-113.571723,53.471758]}},{"type":"Feature","properties":{"stop_url":null,"stop_lat":"53.592695","stop_desc":null,"stop_code":"7983","stop_lon":"-113.396812","zone_id":"1EDM","stop_name":"37 Street & 132 Avenue","location_type":"0","stop_id":"7983","parent_station":null},"geometry":{"type":"Point","coordinates":[-113.396812,53.592695]}},{"type":"Feature","properties":{"stop_url":null,"stop_lat":"53.508773","stop_desc":null,"stop_code":"5754","stop_lon":"-113.625848","zone_id":"1EDM","stop_name":"176 Street & 76 Avenue","location_type":"0","stop_id":"5754","parent_station":null},"geometry":{"type":"Point","coordinates":[-113.625848,53.508773]}},{"type":"Feature","properties":{"stop_url":null,"stop_lat":"53.632919","stop_desc":null,"stop_code":"7497","stop_lon":"-113.480372","zone_id":"1EDM","stop_name":"91 Street & 172 Avenue","location_type":"0","stop_id":"7497","parent_station":null},"geometry":{"type":"Point","coordinates":[-113.480372,53.632919]}},{"type":"Feature","properties":{"stop_url":null,"stop_lat":"53.616251","stop_desc":null,"stop_code":"7787","stop_lon":"-113.476552","zone_id":"1EDM","stop_name":"88 Street & 156 Avenue","location_type":"0","stop_id":"7787","parent_station":null},"geometry":{"type":"Point","coordinates":[-113.476552,53.616251]}},{"type":"Feature","properties":{"stop_url":null,"stop_lat":"53.585477","stop_desc":null,"stop_code":"6191","stop_lon":"-113.541036","zone_id":"1EDM","stop_name":"127 Street & 127 Avenue","location_type":"0","stop_id":"6191","parent_station":null},"geometry":{"type":"Point","coordinates":[-113.541036,53.585477]}},{"type":"Feature","properties":{"stop_url":null,"stop_lat":"53.547023","stop_desc":null,"stop_code":"2154","stop_lon":"-113.430913","zone_id":"1EDM","stop_name":"65 Street & 104 Avenue","location_type":"0","stop_id":"2154","parent_station":null},"geometry":{"type":"Point","coordinates":[-113.430913,53.547023]}},{"type":"Feature","properties":{"stop_url":null,"stop_lat":"53.611102","stop_desc":null,"stop_code":"7341","stop_lon":"-113.484094","zone_id":"1EDM","stop_name":"93 Street & 150 Avenue","location_type":"0","stop_id":"7341","parent_station":null},"geometry":{"type":"Point","coordinates":[-113.484094,53.611102]}},{"type":"Feature","properties":{"stop_url":null,"stop_lat":"53.647804","stop_desc":null,"stop_code":"0905","stop_lon":"-113.64692","zone_id":"2STA","stop_name":"Larose Dr & Lorraine Cr","location_type":"0","stop_id":"A0905","parent_station":null},"geometry":{"type":"Point","coordinates":[-113.64692,53.647804]}},{"type":"Feature","properties":{"stop_url":null,"stop_lat":"53.618814","stop_desc":null,"stop_code":"7806","stop_lon":"-113.408733","zone_id":"1EDM","stop_name":"45 Street & Brintnell Boulevard","location_type":"0","stop_id":"7806","parent_station":null},"geometry":{"type":"Point","coordinates":[-113.408733,53.618814]}},{"type":"Feature","properties":{"stop_url":null,"stop_lat":"53.468937","stop_desc":null,"stop_code":"4539","stop_lon":"-113.584074","zone_id":"1EDM","stop_name":"Ryan Place & Rabbit Hill Road","location_type":"0","stop_id":"4539","parent_station":null},"geometry":{"type":"Point","coordinates":[-113.584074,53.468937]}},{"type":"Feature","properties":{"stop_url":null,"stop_lat":"53.559911","stop_desc":null,"stop_code":"1130","stop_lon":"-113.487691","zone_id":"1EDM","stop_name":"95 Street & 111 Avenue","location_type":"0","stop_id":"1130","parent_station":null},"geometry":{"type":"Point","coordinates":[-113.487691,53.559911]}},{"type":"Feature","properties":{"stop_url":null,"stop_lat":"53.446277","stop_desc":null,"stop_code":"4532","stop_lon":"-113.533339","zone_id":"1EDM","stop_name":"115A Street & 13 Avenue","location_type":"0","stop_id":"4532","parent_station":null},"geometry":{"type":"Point","coordinates":[-113.533339,53.446277]}},{"type":"Feature","properties":{"stop_url":null,"stop_lat":"53.525409","stop_desc":null,"stop_code":"5687","stop_lon":"-113.602879","zone_id":"1EDM","stop_name":"163 Street & 91 Avenue","location_type":"0","stop_id":"5687","parent_station":null},"geometry":{"type":"Point","coordinates":[-113.602879,53.525409]}},{"type":"Feature","properties":{"stop_url":null,"stop_lat":"53.469228","stop_desc":null,"stop_code":"4146","stop_lon":"-113.579951","zone_id":"1EDM","stop_name":"Terwillegar Drive & Rabbit Hill Road","location_type":"0","stop_id":"4146","parent_station":null},"geometry":{"type":"Point","coordinates":[-113.579951,53.469228]}},{"type":"Feature","properties":{"stop_url":null,"stop_lat":"53.541898","stop_desc":null,"stop_code":"8817","stop_lon":"-113.622709","zone_id":"1EDM","stop_name":"175 Street & Stony Plain Road","location_type":"0","stop_id":"8817","parent_station":null},"geometry":{"type":"Point","coordinates":[-113.622709,53.541898]}},{"type":"Feature","properties":{"stop_url":null,"stop_lat":"53.611901","stop_desc":null,"stop_code":"0304","stop_lon":"-113.646034","zone_id":"2STA","stop_name":"Riel Dr & Enjoy Centre South","location_type":"0","stop_id":"A0304","parent_station":null},"geometry":{"type":"Point","coordinates":[-113.646034,53.611901]}},{"type":"Feature","properties":{"stop_url":null,"stop_lat":"53.459241","stop_desc":null,"stop_code":"4179","stop_lon":"-113.530156","zone_id":"1EDM","stop_name":"Saddleback Road & 27 Avenue","location_type":"0","stop_id":"4179","parent_station":null},"geometry":{"type":"Point","coordinates":[-113.530156,53.459241]}},{"type":"Feature","properties":{"stop_url":null,"stop_lat":"53.443331","stop_desc":null,"stop_code":"3080","stop_lon":"-113.432497","zone_id":"1EDM","stop_name":"62 Street & 14 Avenue","location_type":"0","stop_id":"3080","parent_station":null},"geometry":{"type":"Point","coordinates":[-113.432497,53.443331]}},{"type":"Feature","properties":{"stop_url":null,"stop_lat":"53.428598","stop_desc":null,"stop_code":"9027","stop_lon":"-113.44252","zone_id":"1EDM","stop_name":"66 Street & 6 Avenue SW","location_type":"0","stop_id":"9027","parent_station":null},"geometry":{"type":"Point","coordinates":[-113.44252,53.428598]}},{"type":"Feature","properties":{"stop_url":null,"stop_lat":"53.478271","stop_desc":null,"stop_code":"4012","stop_lon":"-113.501052","zone_id":"1EDM","stop_name":"105 Street & 42 Avenue","location_type":"0","stop_id":"4012","parent_station":null},"geometry":{"type":"Point","coordinates":[-113.501052,53.478271]}},{"type":"Feature","properties":{"stop_url":null,"stop_lat":"53.428202","stop_desc":null,"stop_code":"9439","stop_lon":"-113.596611","zone_id":"1EDM","stop_name":"Allan Way & Allan Drive SW","location_type":"0","stop_id":"9439","parent_station":null},"geometry":{"type":"Point","coordinates":[-113.596611,53.428202]}},{"type":"Feature","properties":{"stop_url":null,"stop_lat":"53.543602","stop_desc":null,"stop_code":"E5","stop_lon":"-113.488998","zone_id":null,"stop_name":null,"location_type":"3","stop_id":"E5","parent_station":"Q3620"},"geometry":{"type":"Point","coordinates":[-113.488998,53.543602]}},{"type":"Feature","properties":{"stop_url":null,"stop_lat":"53.687715","stop_desc":null,"stop_code":"1008","stop_lon":"-113.249987","zone_id":"6FST","stop_name":"95A Ave and Westpark Way WB","location_type":"0","stop_id":"F1008","parent_station":null},"geometry":{"type":"Point","coordinates":[-113.249987,53.687715]}},{"type":"Feature","properties":{"stop_url":null,"stop_lat":"53.441281","stop_desc":null,"stop_code":"3319","stop_lon":"-113.48892","zone_id":"1EDM","stop_name":"102 Street & 13 Avenue","location_type":"0","stop_id":"3319","parent_station":null},"geometry":{"type":"Point","coordinates":[-113.48892,53.441281]}},{"type":"Feature","properties":{"stop_url":null,"stop_lat":"53.552033","stop_desc":null,"stop_code":"7315","stop_lon":"-113.251863","zone_id":"4SCT","stop_name":"Clarkdale Dr & Crocus Cr","location_type":"0","stop_id":"S7315","parent_station":null},"geometry":{"type":"Point","coordinates":[-113.251863,53.552033]}},{"type":"Feature","properties":{"stop_url":null,"stop_lat":"53.550141","stop_desc":null,"stop_code":"5406","stop_lon":"-113.565618","zone_id":"1EDM","stop_name":"142 Street & 107 Avenue","location_type":"0","stop_id":"5406","parent_station":null},"geometry":{"type":"Point","coordinates":[-113.565618,53.550141]}},{"type":"Feature","properties":{"stop_url":null,"stop_lat":"53.450501","stop_desc":null,"stop_code":"4087","stop_lon":"-113.565705","zone_id":"1EDM","stop_name":"Rabbit Hill Road & Tory Gate","location_type":"0","stop_id":"4087","parent_station":null},"geometry":{"type":"Point","coordinates":[-113.565705,53.450501]}},{"type":"Feature","properties":{"stop_url":null,"stop_lat":"53.408301","stop_desc":null,"stop_code":"9714","stop_lon":"-113.525539","zone_id":"1EDM","stop_name":"Callaghan Drive & Cantor Landing SW","location_type":"0","stop_id":"9714","parent_station":null},"geometry":{"type":"Point","coordinates":[-113.525539,53.408301]}},{"type":"Feature","properties":{"stop_url":null,"stop_lat":"53.615537","stop_desc":null,"stop_code":"77186","stop_lon":"-113.398711","zone_id":"1EDM","stop_name":"37 Street & 154 Avenue","location_type":"0","stop_id":"77186","parent_station":null},"geometry":{"type":"Point","coordinates":[-113.398711,53.615537]}},{"type":"Feature","properties":{"stop_url":null,"stop_lat":"53.401768","stop_desc":null,"stop_code":"9846","stop_lon":"-113.530269","zone_id":"1EDM","stop_name":"Alexander Crescent & Allard Boulevard SW","location_type":"0","stop_id":"9846","parent_station":null},"geometry":{"type":"Point","coordinates":[-113.530269,53.401768]}},{"type":"Feature","properties":{"stop_url":null,"stop_lat":"53.613032","stop_desc":null,"stop_code":"6633","stop_lon":"-113.557449","zone_id":"1EDM","stop_name":"137 Street & 150 Avenue","location_type":"0","stop_id":"6633","parent_station":null},"geometry":{"type":"Point","coordinates":[-113.557449,53.613032]}},{"type":"Feature","properties":{"stop_url":null,"stop_lat":"53.596888","stop_desc":null,"stop_code":"7444","stop_lon":"-113.41141","zone_id":"1EDM","stop_name":"50 Street & 137 Avenue","location_type":"0","stop_id":"7444","parent_station":null},"geometry":{"type":"Point","coordinates":[-113.41141,53.596888]}},{"type":"Feature","properties":{"stop_url":null,"stop_lat":"53.485052","stop_desc":null,"stop_code":"3522","stop_lon":"-113.41482","zone_id":"1EDM","stop_name":"Jarvis Crescent E & Jamha Road","location_type":"0","stop_id":"3522","parent_station":null},"geometry":{"type":"Point","coordinates":[-113.41482,53.485052]}},{"type":"Feature","properties":{"stop_url":null,"stop_lat":"53.59885","stop_desc":null,"stop_code":"6278","stop_lon":"-113.516836","zone_id":"1EDM","stop_name":"113A Street & 137 Avenue","location_type":"0","stop_id":"6278","parent_station":null},"geometry":{"type":"Point","coordinates":[-113.516836,53.59885]}},{"type":"Feature","properties":{"stop_url":null,"stop_lat":"53.463933","stop_desc":null,"stop_code":"3947","stop_lon":"-113.375612","zone_id":"1EDM","stop_name":"23 Street & Silver Berry Road","location_type":"0","stop_id":"3947","parent_station":null},"geometry":{"type":"Point","coordinates":[-113.375612,53.463933]}},{"type":"Feature","properties":{"stop_url":null,"stop_lat":"53.495325","stop_desc":null,"stop_code":"44157","stop_lon":"-113.574977","zone_id":"1EDM","stop_name":"148 Street & 58 Avenue","location_type":"0","stop_id":"44157","parent_station":null},"geometry":{"type":"Point","coordinates":[-113.574977,53.495325]}},{"type":"Feature","properties":{"stop_url":null,"stop_lat":"53.512374","stop_desc":null,"stop_code":"E69","stop_lon":"-113.526185","zone_id":null,"stop_name":"McKernan Belgravia Station South  Access","location_type":"2","stop_id":"E69","parent_station":"Q5164"},"geometry":{"type":"Point","coordinates":[-113.526185,53.512374]}},{"type":"Feature","properties":{"stop_url":null,"stop_lat":"53.641964","stop_desc":null,"stop_code":"7213","stop_lon":"-113.469535","zone_id":"1EDM","stop_name":"84 Street & 180 Avenue","location_type":"0","stop_id":"7213","parent_station":null},"geometry":{"type":"Point","coordinates":[-113.469535,53.641964]}},{"type":"Feature","properties":{"stop_url":null,"stop_lat":"53.611043","stop_desc":null,"stop_code":"7608","stop_lon":"-113.36734","zone_id":"1EDM","stop_name":"Fraser Way & 148 Avenue","location_type":"0","stop_id":"7608","parent_station":null},"geometry":{"type":"Point","coordinates":[-113.36734,53.611043]}},{"type":"Feature","properties":{"stop_url":null,"stop_lat":"53.563711","stop_desc":null,"stop_code":"1635","stop_lon":"-113.542311","zone_id":"1EDM","stop_name":"127 Street & 114 Avenue","location_type":"0","stop_id":"1635","parent_station":null},"geometry":{"type":"Point","coordinates":[-113.542311,53.563711]}},{"type":"Feature","properties":{"stop_url":null,"stop_lat":"53.492038","stop_desc":null,"stop_code":"8985","stop_lon":"-113.682372","zone_id":"1EDM","stop_name":"Hemingway Road & 57 Avenue","location_type":"0","stop_id":"8985","parent_station":null},"geometry":{"type":"Point","coordinates":[-113.682372,53.492038]}},{"type":"Feature","properties":{"stop_url":null,"stop_lat":"53.610851","stop_desc":null,"stop_code":"7023","stop_lon":"-113.472453","zone_id":"1EDM","stop_name":"87 Street & 149A Avenue","location_type":"0","stop_id":"7023","parent_station":null},"geometry":{"type":"Point","coordinates":[-113.472453,53.610851]}},{"type":"Feature","properties":{"stop_url":null,"stop_lat":"53.473301","stop_desc":null,"stop_code":"3249","stop_lon":"-113.421727","zone_id":"1EDM","stop_name":"55 Street & 39 Avenue","location_type":"0","stop_id":"3249","parent_station":null},"geometry":{"type":"Point","coordinates":[-113.421727,53.473301]}},{"type":"Feature","properties":{"stop_url":null,"stop_lat":"53.510653","stop_desc":null,"stop_code":"2563","stop_lon":"-113.476558","zone_id":"1EDM","stop_name":"96 Street & 74 Avenue","location_type":"0","stop_id":"2563","parent_station":null},"geometry":{"type":"Point","coordinates":[-113.476558,53.510653]}},{"type":"Feature","properties":{"stop_url":null,"stop_lat":"53.575036","stop_desc":null,"stop_code":"1449","stop_lon":"-113.411831","zone_id":"1EDM","stop_name":"46 Street & 121 Avenue","location_type":"0","stop_id":"1449","parent_station":null},"geometry":{"type":"Point","coordinates":[-113.411831,53.575036]}},{"type":"Feature","properties":{"stop_url":null,"stop_lat":"53.604821","stop_desc":null,"stop_code":"6642","stop_lon":"-113.501627","zone_id":"1EDM","stop_name":"Gault Boulevard & Sir Arthur Currie Way","location_type":"0","stop_id":"6642","parent_station":null},"geometry":{"type":"Point","coordinates":[-113.501627,53.604821]}},{"type":"Feature","properties":{"stop_url":null,"stop_lat":"53.494231","stop_desc":null,"stop_code":"8520","stop_lon":"-113.665519","zone_id":"1EDM","stop_name":"199 Street & 62 Avenue","location_type":"0","stop_id":"8520","parent_station":null},"geometry":{"type":"Point","coordinates":[-113.665519,53.494231]}},{"type":"Feature","properties":{"stop_url":null,"stop_lat":"53.61557","stop_desc":null,"stop_code":"7373","stop_lon":"-113.475665","zone_id":"1EDM","stop_name":"88 Street & 153 Avenue","location_type":"0","stop_id":"7373","parent_station":null},"geometry":{"type":"Point","coordinates":[-113.475665,53.61557]}},{"type":"Feature","properties":{"stop_url":null,"stop_lat":"53.459413","stop_desc":null,"stop_code":"3467","stop_lon":"-113.417458","zone_id":"1EDM","stop_name":"48 Street & 28 Avenue","location_type":"0","stop_id":"3467","parent_station":null},"geometry":{"type":"Point","coordinates":[-113.417458,53.459413]}},{"type":"Feature","properties":{"stop_url":null,"stop_lat":"53.684191","stop_desc":null,"stop_code":"5006","stop_lon":"-113.230132","zone_id":"6FST","stop_name":"Southfort Drive and 84 Street NB","location_type":"0","stop_id":"F5006","parent_station":null},"geometry":{"type":"Point","coordinates":[-113.230132,53.684191]}},{"type":"Feature","properties":{"stop_url":null,"stop_lat":"53.587624","stop_desc":null,"stop_code":"6328","stop_lon":"-113.542234","zone_id":"1EDM","stop_name":"127 Street & 129 Avenue","location_type":"0","stop_id":"6328","parent_station":null},"geometry":{"type":"Point","coordinates":[-113.542234,53.587624]}},{"type":"Feature","properties":{"stop_url":null,"stop_lat":"53.515274","stop_desc":null,"stop_code":"5923","stop_lon":"-113.629954","zone_id":"1EDM","stop_name":"178 Street & 81 Avenue","location_type":"0","stop_id":"5923","parent_station":null},"geometry":{"type":"Point","coordinates":[-113.629954,53.515274]}},{"type":"Feature","properties":{"stop_url":null,"stop_lat":"53.460993","stop_desc":null,"stop_code":"4665","stop_lon":"-113.594219","zone_id":"1EDM","stop_name":"Riverbend Road & Heath Road S","location_type":"0","stop_id":"4665","parent_station":null},"geometry":{"type":"Point","coordinates":[-113.594219,53.460993]}},{"type":"Feature","properties":{"stop_url":null,"stop_lat":"53.55584","stop_desc":null,"stop_code":"5523","stop_lon":"-113.558722","zone_id":"1EDM","stop_name":"137 Street & 109A Avenue","location_type":"0","stop_id":"5523","parent_station":null},"geometry":{"type":"Point","coordinates":[-113.558722,53.55584]}},{"type":"Feature","properties":{"stop_url":null,"stop_lat":"53.512207","stop_desc":null,"stop_code":"2770","stop_lon":"-113.516239","zone_id":"1EDM","stop_name":"111 Street & 76 Avenue","location_type":"0","stop_id":"2770","parent_station":null},"geometry":{"type":"Point","coordinates":[-113.516239,53.512207]}},{"type":"Feature","properties":{"stop_url":null,"stop_lat":"53.493907","stop_desc":null,"stop_code":"22218","stop_lon":"-113.436274","zone_id":"1EDM","stop_name":"72 Street & Roper Road","location_type":"0","stop_id":"22218","parent_station":null},"geometry":{"type":"Point","coordinates":[-113.436274,53.493907]}},{"type":"Feature","properties":{"stop_url":null,"stop_lat":"53.420983","stop_desc":null,"stop_code":"9835","stop_lon":"-113.520634","zone_id":"1EDM","stop_name":"114 Street & Rutherford Road SW","location_type":"0","stop_id":"9835","parent_station":null},"geometry":{"type":"Point","coordinates":[-113.520634,53.420983]}},{"type":"Feature","properties":{"stop_url":null,"stop_lat":"53.555111","stop_desc":null,"stop_code":"7874","stop_lon":"-113.291554","zone_id":"4SCT","stop_name":"Lakeland Dr & Axbridge Gate","location_type":"0","stop_id":"S7874","parent_station":null},"geometry":{"type":"Point","coordinates":[-113.291554,53.555111]}},{"type":"Feature","properties":{"stop_url":null,"stop_lat":"53.580752","stop_desc":null,"stop_code":"7633","stop_lon":"-113.376419","zone_id":"1EDM","stop_name":"Hooke Road & Hermitage Road","location_type":"0","stop_id":"7633","parent_station":null},"geometry":{"type":"Point","coordinates":[-113.376419,53.580752]}},{"type":"Feature","properties":{"stop_url":null,"stop_lat":"53.512323","stop_desc":null,"stop_code":"22724","stop_lon":"-113.512753","zone_id":"1EDM","stop_name":"109 Street & 76 Avenue","location_type":"0","stop_id":"22724","parent_station":null},"geometry":{"type":"Point","coordinates":[-113.512753,53.512323]}},{"type":"Feature","properties":{"stop_url":null,"stop_lat":"53.528929","stop_desc":null,"stop_code":"5567","stop_lon":"-113.637626","zone_id":"1EDM","stop_name":"182 Street & 95 Avenue","location_type":"0","stop_id":"5567","parent_station":null},"geometry":{"type":"Point","coordinates":[-113.637626,53.528929]}},{"type":"Feature","properties":{"stop_url":null,"stop_lat":"53.619838","stop_desc":null,"stop_code":"77273","stop_lon":"-113.415795","zone_id":"1EDM","stop_name":"50 Street & Brintnell Boulevard","location_type":"0","stop_id":"77273","parent_station":null},"geometry":{"type":"Point","coordinates":[-113.415795,53.619838]}},{"type":"Feature","properties":{"stop_url":null,"stop_lat":"53.607552","stop_desc":null,"stop_code":"6392","stop_lon":"-113.550415","zone_id":"1EDM","stop_name":"134 Street & Cumberland Road","location_type":"0","stop_id":"6392","parent_station":null},"geometry":{"type":"Point","coordinates":[-113.550415,53.607552]}},{"type":"Feature","properties":{"stop_url":null,"stop_lat":"53.604005","stop_desc":null,"stop_code":"6707","stop_lon":"-113.55428","zone_id":"1EDM","stop_name":"Hudson Road & 141 Avenue","location_type":"0","stop_id":"6707","parent_station":null},"geometry":{"type":"Point","coordinates":[-113.55428,53.604005]}},{"type":"Feature","properties":{"stop_url":null,"stop_lat":"53.576479","stop_desc":null,"stop_code":"1432","stop_lon":"-113.424688","zone_id":"1EDM","stop_name":"54 Street & 122 Avenue","location_type":"0","stop_id":"1432","parent_station":null},"geometry":{"type":"Point","coordinates":[-113.424688,53.576479]}},{"type":"Feature","properties":{"stop_url":null,"stop_lat":"53.551352","stop_desc":null,"stop_code":"1929","stop_lon":"-113.496878","zone_id":"1EDM","stop_name":"103 Street & 107 Avenue","location_type":"0","stop_id":"1929","parent_station":null},"geometry":{"type":"Point","coordinates":[-113.496878,53.551352]}},{"type":"Feature","properties":{"stop_url":null,"stop_lat":"53.595961","stop_desc":null,"stop_code":"7295","stop_lon":"-113.480037","zone_id":"1EDM","stop_name":"90 Street & 135 Avenue","location_type":"0","stop_id":"7295","parent_station":null},"geometry":{"type":"Point","coordinates":[-113.480037,53.595961]}},{"type":"Feature","properties":{"stop_url":null,"stop_lat":"53.51797","stop_desc":null,"stop_code":"2443","stop_lon":"-113.463971","zone_id":"1EDM","stop_name":"89 Street & 82 Avenue","location_type":"0","stop_id":"2443","parent_station":null},"geometry":{"type":"Point","coordinates":[-113.463971,53.51797]}},{"type":"Feature","properties":{"stop_url":null,"stop_lat":"53.570477","stop_desc":null,"stop_code":"1296","stop_lon":"-113.394411","zone_id":"1EDM","stop_name":"34 Street & 118 Avenue","location_type":"0","stop_id":"1296","parent_station":null},"geometry":{"type":"Point","coordinates":[-113.394411,53.570477]}},{"type":"Feature","properties":{"stop_url":null,"stop_lat":"53.399233","stop_desc":null,"stop_code":"99233","stop_lon":"-113.592684","zone_id":"1EDM","stop_name":"Chappelle Way & Colak Lane SW","location_type":"0","stop_id":"99233","parent_station":null},"geometry":{"type":"Point","coordinates":[-113.592684,53.399233]}},{"type":"Feature","properties":{"stop_url":null,"stop_lat":"53.566814","stop_desc":null,"stop_code":"7901","stop_lon":"-113.278657","zone_id":"4SCT","stop_name":"Emerald Dr & Eton Blvd","location_type":"0","stop_id":"S7901","parent_station":null},"geometry":{"type":"Point","coordinates":[-113.278657,53.566814]}},{"type":"Feature","properties":{"stop_url":null,"stop_lat":"53.454202","stop_desc":null,"stop_code":"4880","stop_lon":"-113.566283","zone_id":"1EDM","stop_name":"Rabbit Hill Road & 23 Avenue","location_type":"0","stop_id":"4880","parent_station":null},"geometry":{"type":"Point","coordinates":[-113.566283,53.454202]}},{"type":"Feature","properties":{"stop_url":null,"stop_lat":"53.611734","stop_desc":null,"stop_code":"6275","stop_lon":"-113.531493","zone_id":"1EDM","stop_name":"121 Street & 150 Avenue","location_type":"0","stop_id":"6275","parent_station":null},"geometry":{"type":"Point","coordinates":[-113.531493,53.611734]}},{"type":"Feature","properties":{"stop_url":null,"stop_lat":"53.446604","stop_desc":null,"stop_code":"3746","stop_lon":"-113.387661","zone_id":"1EDM","stop_name":"32 Street & 17B Avenue","location_type":"0","stop_id":"3746","parent_station":null},"geometry":{"type":"Point","coordinates":[-113.387661,53.446604]}},{"type":"Feature","properties":{"stop_url":null,"stop_lat":"53.527801","stop_desc":null,"stop_code":"22657","stop_lon":"-113.455717","zone_id":"1EDM","stop_name":"83 Street & 93 Avenue","location_type":"0","stop_id":"22657","parent_station":null},"geometry":{"type":"Point","coordinates":[-113.455717,53.527801]}},{"type":"Feature","properties":{"stop_url":null,"stop_lat":"53.445306","stop_desc":null,"stop_code":"3630","stop_lon":"-113.485163","zone_id":"1EDM","stop_name":"99 Street & 19 Avenue","location_type":"0","stop_id":"3630","parent_station":null},"geometry":{"type":"Point","coordinates":[-113.485163,53.445306]}},{"type":"Feature","properties":{"stop_url":null,"stop_lat":"53.611692","stop_desc":null,"stop_code":"6557","stop_lon":"-113.508784","zone_id":"1EDM","stop_name":"Griesbach Road & Martin Avenue","location_type":"0","stop_id":"6557","parent_station":null},"geometry":{"type":"Point","coordinates":[-113.508784,53.611692]}},{"type":"Feature","properties":{"stop_url":null,"stop_lat":"53.52294","stop_desc":null,"stop_code":"8856","stop_lon":"-113.692283","zone_id":"1EDM","stop_name":"218 Street & Rosenthal Link","location_type":"0","stop_id":"8856","parent_station":null},"geometry":{"type":"Point","coordinates":[-113.692283,53.52294]}},{"type":"Feature","properties":{"stop_url":null,"stop_lat":"53.49739","stop_desc":null,"stop_code":"2867","stop_lon":"-113.504521","zone_id":"1EDM","stop_name":"106 Street & 61 Avenue","location_type":"0","stop_id":"2867","parent_station":null},"geometry":{"type":"Point","coordinates":[-113.504521,53.49739]}},{"type":"Feature","properties":{"stop_url":null,"stop_lat":"53.630099","stop_desc":null,"stop_code":"7122","stop_lon":"-113.478964","zone_id":"1EDM","stop_name":"90 Street & Klarvatten Road","location_type":"0","stop_id":"7122","parent_station":null},"geometry":{"type":"Point","coordinates":[-113.478964,53.630099]}},{"type":"Feature","properties":{"stop_url":null,"stop_lat":"53.607709","stop_desc":null,"stop_code":"7065","stop_lon":"-113.437402","zone_id":"1EDM","stop_name":"62 Street & 146 Avenue","location_type":"0","stop_id":"7065","parent_station":null},"geometry":{"type":"Point","coordinates":[-113.437402,53.607709]}},{"type":"Feature","properties":{"stop_url":null,"stop_lat":"53.535677","stop_desc":null,"stop_code":"E147","stop_lon":"-113.510185","zone_id":null,"stop_name":null,"location_type":"3","stop_id":"E147","parent_station":"Q3561"},"geometry":{"type":"Point","coordinates":[-113.510185,53.535677]}},{"type":"Feature","properties":{"stop_url":null,"stop_lat":"53.531476","stop_desc":null,"stop_code":"5421","stop_lon":"-113.584538","zone_id":"1EDM","stop_name":"153 Street & 95 Avenue","location_type":"0","stop_id":"5421","parent_station":null},"geometry":{"type":"Point","coordinates":[-113.584538,53.531476]}},{"type":"Feature","properties":{"stop_url":null,"stop_lat":"53.614133","stop_desc":null,"stop_code":"0372","stop_lon":"-113.618416","zone_id":"2STA","stop_name":"Levasseur Road & Hudson Road","location_type":"0","stop_id":"A0372","parent_station":null},"geometry":{"type":"Point","coordinates":[-113.618416,53.614133]}},{"type":"Feature","properties":{"stop_url":null,"stop_lat":"53.645918","stop_desc":null,"stop_code":"0399","stop_lon":"-113.622347","zone_id":"2STA","stop_name":"Bellerose Dr & Inglewood Dr","location_type":"0","stop_id":"A0399","parent_station":null},"geometry":{"type":"Point","coordinates":[-113.622347,53.645918]}},{"type":"Feature","properties":{"stop_url":null,"stop_lat":"53.558672","stop_desc":null,"stop_code":"5152","stop_lon":"-113.590532","zone_id":"1EDM","stop_name":"156 Street & 111 Avenue","location_type":"0","stop_id":"5152","parent_station":null},"geometry":{"type":"Point","coordinates":[-113.590532,53.558672]}},{"type":"Feature","properties":{"stop_url":null,"stop_lat":"53.545438","stop_desc":null,"stop_code":"8123","stop_lon":"-113.288084","zone_id":"4SCT","stop_name":"Jim Common Dr & Cranford Dr","location_type":"0","stop_id":"S8123","parent_station":null},"geometry":{"type":"Point","coordinates":[-113.288084,53.545438]}},{"type":"Feature","properties":{"stop_url":null,"stop_lat":"53.543572","stop_desc":null,"stop_code":"1718","stop_lon":"-113.500973","zone_id":"1EDM","stop_name":"105 Street & 102 Avenue","location_type":"0","stop_id":"1718","parent_station":null},"geometry":{"type":"Point","coordinates":[-113.500973,53.543572]}},{"type":"Feature","properties":{"stop_url":null,"stop_lat":"53.475844","stop_desc":null,"stop_code":"3650","stop_lon":"-113.416855","zone_id":"1EDM","stop_name":"50 Street & 40 Avenue","location_type":"0","stop_id":"3650","parent_station":null},"geometry":{"type":"Point","coordinates":[-113.416855,53.475844]}},{"type":"Feature","properties":{"stop_url":null,"stop_lat":"53.529333","stop_desc":null,"stop_code":"5028","stop_lon":"-113.607194","zone_id":"1EDM","stop_name":"165 Street & 93 Avenue","location_type":"0","stop_id":"5028","parent_station":null},"geometry":{"type":"Point","coordinates":[-113.607194,53.529333]}},{"type":"Feature","properties":{"stop_url":null,"stop_lat":"53.528822","stop_desc":null,"stop_code":"E282","stop_lon":"-113.457544","zone_id":null,"stop_name":"Holyrood Stop South","location_type":"2","stop_id":"E282","parent_station":"Q6034"},"geometry":{"type":"Point","coordinates":[-113.457544,53.528822]}},{"type":"Feature","properties":{"stop_url":null,"stop_lat":"53.450534","stop_desc":null,"stop_code":"4740","stop_lon":"-113.559835","zone_id":"1EDM","stop_name":"Magrath Road & Magrath Boulevard","location_type":"0","stop_id":"4740","parent_station":null},"geometry":{"type":"Point","coordinates":[-113.559835,53.450534]}},{"type":"Feature","properties":{"stop_url":null,"stop_lat":"53.445067","stop_desc":null,"stop_code":"4949","stop_lon":"-113.565365","zone_id":"1EDM","stop_name":"Rabbit Hill Road & MacTaggart Drive","location_type":"0","stop_id":"4949","parent_station":null},"geometry":{"type":"Point","coordinates":[-113.565365,53.445067]}},{"type":"Feature","properties":{"stop_url":null,"stop_lat":"53.592762","stop_desc":null,"stop_code":"7280","stop_lon":"-113.479622","zone_id":"1EDM","stop_name":"90 Street & 132 Avenue","location_type":"0","stop_id":"7280","parent_station":null},"geometry":{"type":"Point","coordinates":[-113.479622,53.592762]}},{"type":"Feature","properties":{"stop_url":null,"stop_lat":"53.553212","stop_desc":null,"stop_code":"2522","stop_lon":"-113.43008","zone_id":"1EDM","stop_name":"65 Street & 106B Avenue","location_type":"0","stop_id":"2522","parent_station":null},"geometry":{"type":"Point","coordinates":[-113.43008,53.553212]}},{"type":"Feature","properties":{"stop_url":null,"stop_lat":"53.554439","stop_desc":null,"stop_code":"2326","stop_lon":"-113.412864","zone_id":"1EDM","stop_name":"46 Street & 107 Avenue","location_type":"0","stop_id":"2326","parent_station":null},"geometry":{"type":"Point","coordinates":[-113.412864,53.554439]}},{"type":"Feature","properties":{"stop_url":null,"stop_lat":"53.457305","stop_desc":null,"stop_code":"3906","stop_lon":"-113.429858","zone_id":"1EDM","stop_name":"Mill Woods Transit Centre Bay F","location_type":"0","stop_id":"3906","parent_station":null},"geometry":{"type":"Point","coordinates":[-113.429858,53.457305]}},{"type":"Feature","properties":{"stop_url":null,"stop_lat":"53.563693","stop_desc":null,"stop_code":"1613","stop_lon":"-113.545883","zone_id":"1EDM","stop_name":"St Albert Trail & 114 Avenue","location_type":"0","stop_id":"1613","parent_station":null},"geometry":{"type":"Point","coordinates":[-113.545883,53.563693]}},{"type":"Feature","properties":{"stop_url":null,"stop_lat":"53.540558","stop_desc":null,"stop_code":"5103","stop_lon":"-113.591781","zone_id":"1EDM","stop_name":"Jasper Place Transit Centre Bay C","location_type":"0","stop_id":"5103","parent_station":null},"geometry":{"type":"Point","coordinates":[-113.591781,53.540558]}},{"type":"Feature","properties":{"stop_url":null,"stop_lat":"53.401465","stop_desc":null,"stop_code":"9606","stop_lon":"-113.589106","zone_id":"1EDM","stop_name":"Cooper Bend & Chappelle Way SW","location_type":"0","stop_id":"9606","parent_station":null},"geometry":{"type":"Point","coordinates":[-113.589106,53.401465]}},{"type":"Feature","properties":{"stop_url":null,"stop_lat":"53.538954","stop_desc":null,"stop_code":"4805","stop_lon":"-113.320303","zone_id":"4SCT","stop_name":"Broadmoor Blvd & Kaska Rd","location_type":"0","stop_id":"S4805","parent_station":null},"geometry":{"type":"Point","coordinates":[-113.320303,53.538954]}},{"type":"Feature","properties":{"stop_url":null,"stop_lat":"53.608011","stop_desc":null,"stop_code":"6343","stop_lon":"-113.496599","zone_id":"1EDM","stop_name":"Griesbach School Road & Griesbach Road","location_type":"0","stop_id":"6343","parent_station":null},"geometry":{"type":"Point","coordinates":[-113.496599,53.608011]}},{"type":"Feature","properties":{"stop_url":null,"stop_lat":"53.519611","stop_desc":null,"stop_code":"6041","stop_lon":"-113.307867","zone_id":"4SCT","stop_name":"Fir St & Oak St","location_type":"0","stop_id":"S6041","parent_station":null},"geometry":{"type":"Point","coordinates":[-113.307867,53.519611]}},{"type":"Feature","properties":{"stop_url":null,"stop_lat":"53.592002","stop_desc":null,"stop_code":"7358","stop_lon":"-113.487074","zone_id":"1EDM","stop_name":"95 Street & 132 Avenue","location_type":"0","stop_id":"7358","parent_station":null},"geometry":{"type":"Point","coordinates":[-113.487074,53.592002]}},{"type":"Feature","properties":{"stop_url":null,"stop_lat":"53.526339","stop_desc":null,"stop_code":"1008","stop_lon":"-113.295845","zone_id":"4SCT","stop_name":"Sherwood Dr & Festival Ave","location_type":"0","stop_id":"S1008","parent_station":null},"geometry":{"type":"Point","coordinates":[-113.295845,53.526339]}},{"type":"Feature","properties":{"stop_url":null,"stop_lat":"53.566836","stop_desc":null,"stop_code":"1276","stop_lon":"-113.412808","zone_id":"1EDM","stop_name":"46 Street & 114 Avenue","location_type":"0","stop_id":"1276","parent_station":null},"geometry":{"type":"Point","coordinates":[-113.412808,53.566836]}},{"type":"Feature","properties":{"stop_url":null,"stop_lat":"53.509481","stop_desc":null,"stop_code":"5085","stop_lon":"-113.590462","zone_id":"1EDM","stop_name":"156 Street & 77A Avenue","location_type":"0","stop_id":"5085","parent_station":null},"geometry":{"type":"Point","coordinates":[-113.590462,53.509481]}},{"type":"Feature","properties":{"stop_url":null,"stop_lat":"53.543701","stop_desc":null,"stop_code":"E18","stop_lon":"-113.490473","zone_id":null,"stop_name":"Tix on the Square LRT Access","location_type":"2","stop_id":"E18","parent_station":"Q3620"},"geometry":{"type":"Point","coordinates":[-113.490473,53.543701]}},{"type":"Feature","properties":{"stop_url":null,"stop_lat":"53.297567","stop_desc":null,"stop_code":"0198","stop_lon":"-113.537465","zone_id":"9LT","stop_name":"43 Street & 77 Avenue","location_type":"0","stop_id":"L0198","parent_station":null},"geometry":{"type":"Point","coordinates":[-113.537465,53.297567]}},{"type":"Feature","properties":{"stop_url":null,"stop_lat":"53.638603","stop_desc":null,"stop_code":"0721","stop_lon":"-113.647452","zone_id":"2STA","stop_name":"Laydon Dr & Lester Cr","location_type":"0","stop_id":"A0721","parent_station":null},"geometry":{"type":"Point","coordinates":[-113.647452,53.638603]}},{"type":"Feature","properties":{"stop_url":null,"stop_lat":"53.488253","stop_desc":null,"stop_code":"2296","stop_lon":"-113.492633","zone_id":"1EDM","stop_name":"Gateway Boulevard & 51 Avenue","location_type":"0","stop_id":"2296","parent_station":null},"geometry":{"type":"Point","coordinates":[-113.492633,53.488253]}},{"type":"Feature","properties":{"stop_url":null,"stop_lat":"53.540924","stop_desc":null,"stop_code":"E94","stop_lon":"-113.491376","zone_id":null,"stop_name":"ATB Building LRT Access","location_type":"2","stop_id":"E94","parent_station":"Q3619"},"geometry":{"type":"Point","coordinates":[-113.491376,53.540924]}},{"type":"Feature","properties":{"stop_url":null,"stop_lat":"53.571965","stop_desc":null,"stop_code":"1001","stop_lon":"-113.390362","zone_id":"1EDM","stop_name":"Abbottsfield Transit Centre Bay A","location_type":"0","stop_id":"1001","parent_station":null},"geometry":{"type":"Point","coordinates":[-113.390362,53.571965]}},{"type":"Feature","properties":{"stop_url":null,"stop_lat":"53.588048","stop_desc":null,"stop_code":"7208","stop_lon":"-113.43504","zone_id":"1EDM","stop_name":"Belvedere Transit Centre Bay H","location_type":"0","stop_id":"7208","parent_station":null},"geometry":{"type":"Point","coordinates":[-113.43504,53.588048]}},{"type":"Feature","properties":{"stop_url":null,"stop_lat":"53.512643","stop_desc":null,"stop_code":"2692","stop_lon":"-113.485974","zone_id":"1EDM","stop_name":"99 Street & 76 Avenue","location_type":"0","stop_id":"2692","parent_station":null},"geometry":{"type":"Point","coordinates":[-113.485974,53.512643]}},{"type":"Feature","properties":{"stop_url":null,"stop_lat":"53.331017","stop_desc":null,"stop_code":"0354","stop_lon":"-113.531341","zone_id":"9LT","stop_name":"5 Street & 17 Avenue","location_type":"0","stop_id":"L0354","parent_station":null},"geometry":{"type":"Point","coordinates":[-113.531341,53.331017]}},{"type":"Feature","properties":{"stop_url":null,"stop_lat":"53.457006","stop_desc":null,"stop_code":"4525","stop_lon":"-113.582757","zone_id":"1EDM","stop_name":"2019 Leger Road","location_type":"0","stop_id":"4525","parent_station":null},"geometry":{"type":"Point","coordinates":[-113.582757,53.457006]}},{"type":"Feature","properties":{"stop_url":null,"stop_lat":"53.558003","stop_desc":null,"stop_code":"8335","stop_lon":"-113.896624","zone_id":"5SGT","stop_name":"King Street & Grove Drive","location_type":"0","stop_id":"8335","parent_station":null},"geometry":{"type":"Point","coordinates":[-113.896624,53.558003]}},{"type":"Feature","properties":{"stop_url":null,"stop_lat":"53.638911","stop_desc":null,"stop_code":"0583","stop_lon":"-113.593597","zone_id":"2STA","stop_name":"Primeau Lane & Boudreau Rd","location_type":"0","stop_id":"A0583","parent_station":null},"geometry":{"type":"Point","coordinates":[-113.593597,53.638911]}},{"type":"Feature","properties":{"stop_url":null,"stop_lat":"53.562447","stop_desc":null,"stop_code":"7536","stop_lon":"-113.250891","zone_id":"4SCT","stop_name":"Still Creek Cres & Sandstone Blvd","location_type":"0","stop_id":"S7536","parent_station":null},"geometry":{"type":"Point","coordinates":[-113.250891,53.562447]}},{"type":"Feature","properties":{"stop_url":null,"stop_lat":"53.542309","stop_desc":null,"stop_code":"2182","stop_lon":"-113.418378","zone_id":"1EDM","stop_name":"50 Street & 101A Avenue","location_type":"0","stop_id":"2182","parent_station":null},"geometry":{"type":"Point","coordinates":[-113.418378,53.542309]}},{"type":"Feature","properties":{"stop_url":null,"stop_lat":"53.591996","stop_desc":null,"stop_code":"6537","stop_lon":"-113.500028","zone_id":"1EDM","stop_name":"105 Street & 132 Avenue","location_type":"0","stop_id":"6537","parent_station":null},"geometry":{"type":"Point","coordinates":[-113.500028,53.591996]}},{"type":"Feature","properties":{"stop_url":null,"stop_lat":"53.570348","stop_desc":null,"stop_code":"1799","stop_lon":"-113.542794","zone_id":"1EDM","stop_name":"127 Street & 118 Avenue","location_type":"0","stop_id":"1799","parent_station":null},"geometry":{"type":"Point","coordinates":[-113.542794,53.570348]}},{"type":"Feature","properties":{"stop_url":null,"stop_lat":"53.412298","stop_desc":null,"stop_code":"9220","stop_lon":"-113.50379","zone_id":"1EDM","stop_name":"103A Street & 30 Avenue SW","location_type":"0","stop_id":"9220","parent_station":null},"geometry":{"type":"Point","coordinates":[-113.50379,53.412298]}},{"type":"Feature","properties":{"stop_url":null,"stop_lat":"53.544426","stop_desc":null,"stop_code":null,"stop_lon":"-113.484008","zone_id":"1EDM","stop_name":"Quarters Stop","location_type":"1","stop_id":"Q6037","parent_station":null},"geometry":{"type":"Point","coordinates":[-113.484008,53.544426]}},{"type":"Feature","properties":{"stop_url":null,"stop_lat":"53.562882","stop_desc":null,"stop_code":"8514","stop_lon":"-113.627464","zone_id":"1EDM","stop_name":"178 Street & 114 Avenue","location_type":"0","stop_id":"8514","parent_station":null},"geometry":{"type":"Point","coordinates":[-113.627464,53.562882]}},{"type":"Feature","properties":{"stop_url":null,"stop_lat":"53.551492","stop_desc":null,"stop_code":"1995","stop_lon":"-113.514475","zone_id":"1EDM","stop_name":"112 Street & 107 Avenue","location_type":"0","stop_id":"1995","parent_station":null},"geometry":{"type":"Point","coordinates":[-113.514475,53.551492]}},{"type":"Feature","properties":{"stop_url":null,"stop_lat":"53.552134","stop_desc":null,"stop_code":"8927","stop_lon":"-113.688945","zone_id":"1EDM","stop_name":"215 Street & 107 Avenue","location_type":"0","stop_id":"8927","parent_station":null},"geometry":{"type":"Point","coordinates":[-113.688945,53.552134]}},{"type":"Feature","properties":{"stop_url":null,"stop_lat":"53.472626","stop_desc":null,"stop_code":"3596","stop_lon":"-113.387078","zone_id":"1EDM","stop_name":"31 Street & 37A Avenue","location_type":"0","stop_id":"3596","parent_station":null},"geometry":{"type":"Point","coordinates":[-113.387078,53.472626]}},{"type":"Feature","properties":{"stop_url":null,"stop_lat":"53.339292","stop_desc":null,"stop_code":"0305","stop_lon":"-113.53116","zone_id":"9LT","stop_name":"5 Street & 20 Avenue","location_type":"0","stop_id":"L0305","parent_station":null},"geometry":{"type":"Point","coordinates":[-113.53116,53.339292]}},{"type":"Feature","properties":{"stop_url":null,"stop_lat":"53.517188","stop_desc":null,"stop_code":"2840","stop_lon":"-113.486362","zone_id":"1EDM","stop_name":"99 Street & 81 Avenue","location_type":"0","stop_id":"2840","parent_station":null},"geometry":{"type":"Point","coordinates":[-113.486362,53.517188]}},{"type":"Feature","properties":{"stop_url":null,"stop_lat":"53.457699","stop_desc":null,"stop_code":"E40","stop_lon":"-113.516885","zone_id":null,"stop_name":"111 Street","location_type":"2","stop_id":"E40","parent_station":"Q5267"},"geometry":{"type":"Point","coordinates":[-113.516885,53.457699]}},{"type":"Feature","properties":{"stop_url":null,"stop_lat":"53.465572","stop_desc":null,"stop_code":"3850","stop_lon":"-113.428895","zone_id":"1EDM","stop_name":"58 Street & 34 Avenue","location_type":"0","stop_id":"3850","parent_station":null},"geometry":{"type":"Point","coordinates":[-113.428895,53.465572]}},{"type":"Feature","properties":{"stop_url":null,"stop_lat":"53.660085","stop_desc":null,"stop_code":"0290","stop_lon":"-113.651627","zone_id":"2STA","stop_name":"Jensen Lakes Blvd & Jensen Gate","location_type":"0","stop_id":"A0290","parent_station":null},"geometry":{"type":"Point","coordinates":[-113.651627,53.660085]}},{"type":"Feature","properties":{"stop_url":null,"stop_lat":"53.457717","stop_desc":null,"stop_code":"3833","stop_lon":"-113.369274","zone_id":"1EDM","stop_name":"Meadows Recreation Centre","location_type":"0","stop_id":"3833","parent_station":null},"geometry":{"type":"Point","coordinates":[-113.369274,53.457717]}},{"type":"Feature","properties":{"stop_url":null,"stop_lat":"53.416797","stop_desc":null,"stop_code":"9169","stop_lon":"-113.518664","zone_id":"1EDM","stop_name":"James Mowatt Trail & Bowen Wynd SW","location_type":"0","stop_id":"9169","parent_station":null},"geometry":{"type":"Point","coordinates":[-113.518664,53.416797]}},{"type":"Feature","properties":{"stop_url":null,"stop_lat":"53.408979","stop_desc":null,"stop_code":"9428","stop_lon":"-113.537315","zone_id":"1EDM","stop_name":"119A Street & 26 Avenue SW","location_type":"0","stop_id":"9428","parent_station":null},"geometry":{"type":"Point","coordinates":[-113.537315,53.408979]}},{"type":"Feature","properties":{"stop_url":null,"stop_lat":"53.522298","stop_desc":null,"stop_code":"9016","stop_lon":"-113.279489","zone_id":"4SCT","stop_name":"Nottingham Blvd & Nottingham Rd","location_type":"0","stop_id":"S9016","parent_station":null},"geometry":{"type":"Point","coordinates":[-113.279489,53.522298]}},{"type":"Feature","properties":{"stop_url":null,"stop_lat":"53.558789","stop_desc":null,"stop_code":"1113","stop_lon":"-113.5002","zone_id":"1EDM","stop_name":"Kingsway RAH Transit Centre Bay J","location_type":"0","stop_id":"1113","parent_station":null},"geometry":{"type":"Point","coordinates":[-113.5002,53.558789]}},{"type":"Feature","properties":{"stop_url":null,"stop_lat":"53.468404","stop_desc":null,"stop_code":"3232","stop_lon":"-113.424982","zone_id":"1EDM","stop_name":"Woodvale Road E & 35 Avenue","location_type":"0","stop_id":"3232","parent_station":null},"geometry":{"type":"Point","coordinates":[-113.424982,53.468404]}},{"type":"Feature","properties":{"stop_url":null,"stop_lat":"53.449114","stop_desc":null,"stop_code":"4440","stop_lon":"-113.516041","zone_id":"1EDM","stop_name":"111 Street & 19 Avenue","location_type":"0","stop_id":"4440","parent_station":null},"geometry":{"type":"Point","coordinates":[-113.516041,53.449114]}},{"type":"Feature","properties":{"stop_url":null,"stop_lat":"53.473699","stop_desc":null,"stop_code":"3240","stop_lon":"-113.459094","zone_id":"1EDM","stop_name":"85 Street & Mill Woods Road","location_type":"0","stop_id":"3240","parent_station":null},"geometry":{"type":"Point","coordinates":[-113.459094,53.473699]}},{"type":"Feature","properties":{"stop_url":null,"stop_lat":"53.425768","stop_desc":null,"stop_code":"9011","stop_lon":"-113.544968","zone_id":"1EDM","stop_name":"Heritage Valley Transit Centre Bay D","location_type":"0","stop_id":"9011","parent_station":null},"geometry":{"type":"Point","coordinates":[-113.544968,53.425768]}},{"type":"Feature","properties":{"stop_url":null,"stop_lat":"53.520497","stop_desc":null,"stop_code":"2576","stop_lon":"-113.467539","zone_id":"1EDM","stop_name":"91 Street & 85 Avenue","location_type":"0","stop_id":"2576","parent_station":null},"geometry":{"type":"Point","coordinates":[-113.467539,53.520497]}},{"type":"Feature","properties":{"stop_url":null,"stop_lat":"53.57035","stop_desc":null,"stop_code":"5928","stop_lon":"-113.586591","zone_id":"1EDM","stop_name":"154 Street & 118 Avenue","location_type":"0","stop_id":"5928","parent_station":null},"geometry":{"type":"Point","coordinates":[-113.586591,53.57035]}},{"type":"Feature","properties":{"stop_url":null,"stop_lat":"53.484943","stop_desc":null,"stop_code":"3396","stop_lon":"-113.413973","zone_id":"1EDM","stop_name":"Jarvis Crescent E & Jamha Road","location_type":"0","stop_id":"3396","parent_station":null},"geometry":{"type":"Point","coordinates":[-113.413973,53.484943]}},{"type":"Feature","properties":{"stop_url":null,"stop_lat":"53.546129","stop_desc":null,"stop_code":"1639","stop_lon":"-113.5095","zone_id":"1EDM","stop_name":"110 Street & 104 Avenue","location_type":"0","stop_id":"1639","parent_station":null},"geometry":{"type":"Point","coordinates":[-113.5095,53.546129]}},{"type":"Feature","properties":{"stop_url":null,"stop_lat":"53.622234","stop_desc":null,"stop_code":"7601","stop_lon":"-113.401093","zone_id":"1EDM","stop_name":"38 Street & 160 Avenue","location_type":"0","stop_id":"7601","parent_station":null},"geometry":{"type":"Point","coordinates":[-113.401093,53.622234]}},{"type":"Feature","properties":{"stop_url":null,"stop_lat":"53.570756","stop_desc":null,"stop_code":"1454","stop_lon":"-113.418281","zone_id":"1EDM","stop_name":"50 Street & 118 Avenue","location_type":"0","stop_id":"1454","parent_station":null},"geometry":{"type":"Point","coordinates":[-113.418281,53.570756]}},{"type":"Feature","properties":{"stop_url":null,"stop_lat":"53.477856","stop_desc":null,"stop_code":"4380","stop_lon":"-113.582669","zone_id":"1EDM","stop_name":"Riverbend Road & 40 Avenue","location_type":"0","stop_id":"4380","parent_station":null},"geometry":{"type":"Point","coordinates":[-113.582669,53.477856]}},{"type":"Feature","properties":{"stop_url":null,"stop_lat":"53.465714","stop_desc":null,"stop_code":"4568","stop_lon":"-113.580018","zone_id":"1EDM","stop_name":"Carter Crest Road & Carlson Close","location_type":"0","stop_id":"4568","parent_station":null},"geometry":{"type":"Point","coordinates":[-113.580018,53.465714]}},{"type":"Feature","properties":{"stop_url":null,"stop_lat":"53.473111","stop_desc":null,"stop_code":"3659","stop_lon":"-113.451236","zone_id":"1EDM","stop_name":"Mill Woods Road & 38 Avenue","location_type":"0","stop_id":"3659","parent_station":null},"geometry":{"type":"Point","coordinates":[-113.451236,53.473111]}},{"type":"Feature","properties":{"stop_url":null,"stop_lat":"53.604699","stop_desc":null,"stop_code":"6678","stop_lon":"-113.503121","zone_id":"1EDM","stop_name":"Pegasus Boulevard & Sir Arthur Currie Way","location_type":"0","stop_id":"6678","parent_station":null},"geometry":{"type":"Point","coordinates":[-113.503121,53.604699]}},{"type":"Feature","properties":{"stop_url":null,"stop_lat":"53.517996","stop_desc":null,"stop_code":"2724","stop_lon":"-113.505763","zone_id":"1EDM","stop_name":"107 Street & 82 Avenue","location_type":"0","stop_id":"2724","parent_station":null},"geometry":{"type":"Point","coordinates":[-113.505763,53.517996]}},{"type":"Feature","properties":{"stop_url":null,"stop_lat":"53.62046","stop_desc":null,"stop_code":"0033","stop_lon":"-113.619317","zone_id":"2STA","stop_name":"Grandin Rd & Grandora Cres","location_type":"0","stop_id":"A0033","parent_station":null},"geometry":{"type":"Point","coordinates":[-113.619317,53.62046]}},{"type":"Feature","properties":{"stop_url":null,"stop_lat":"53.459943","stop_desc":null,"stop_code":"4096","stop_lon":"-113.529719","zone_id":"1EDM","stop_name":"Saddleback Road & 27 Avenue","location_type":"0","stop_id":"4096","parent_station":null},"geometry":{"type":"Point","coordinates":[-113.529719,53.459943]}},{"type":"Feature","properties":{"stop_url":null,"stop_lat":"53.601959","stop_desc":null,"stop_code":"7413","stop_lon":"-113.400487","zone_id":"1EDM","stop_name":"37 Street & 139 Avenue","location_type":"0","stop_id":"7413","parent_station":null},"geometry":{"type":"Point","coordinates":[-113.400487,53.601959]}},{"type":"Feature","properties":{"stop_url":null,"stop_lat":"53.611796","stop_desc":null,"stop_code":"6473","stop_lon":"-113.543971","zone_id":"1EDM","stop_name":"129 Street & 149 Avenue","location_type":"0","stop_id":"6473","parent_station":null},"geometry":{"type":"Point","coordinates":[-113.543971,53.611796]}},{"type":"Feature","properties":{"stop_url":null,"stop_lat":"53.534893","stop_desc":null,"stop_code":"5065","stop_lon":"-113.320258","zone_id":"4SCT","stop_name":"Broadmoor Blvd & Sioux Rd","location_type":"0","stop_id":"S5065","parent_station":null},"geometry":{"type":"Point","coordinates":[-113.320258,53.534893]}},{"type":"Feature","properties":{"stop_url":null,"stop_lat":"53.424947","stop_desc":null,"stop_code":"9052","stop_lon":"-113.489981","zone_id":"1EDM","stop_name":"100 Street & Ellerslie Road SW","location_type":"0","stop_id":"9052","parent_station":null},"geometry":{"type":"Point","coordinates":[-113.489981,53.424947]}},{"type":"Feature","properties":{"stop_url":null,"stop_lat":"53.615942","stop_desc":null,"stop_code":"0049","stop_lon":"-113.63806","zone_id":"2STA","stop_name":"Gainsborough Ave & SWC Ave","location_type":"0","stop_id":"A0049","parent_station":null},"geometry":{"type":"Point","coordinates":[-113.63806,53.615942]}},{"type":"Feature","properties":{"stop_url":null,"stop_lat":"53.37442","stop_desc":null,"stop_code":"0370","stop_lon":"-113.516291","zone_id":"9LT","stop_name":"8 Street & 32 Avenue","location_type":"0","stop_id":"L0370","parent_station":null},"geometry":{"type":"Point","coordinates":[-113.516291,53.37442]}},{"type":"Feature","properties":{"stop_url":null,"stop_lat":"53.467135","stop_desc":null,"stop_code":"3497","stop_lon":"-113.486245","zone_id":"1EDM","stop_name":"Parsons Road & 34 Avenue","location_type":"0","stop_id":"3497","parent_station":null},"geometry":{"type":"Point","coordinates":[-113.486245,53.467135]}},{"type":"Feature","properties":{"stop_url":null,"stop_lat":"53.538222","stop_desc":null,"stop_code":"5956","stop_lon":"-113.627299","zone_id":"1EDM","stop_name":"178 Street & 100 Avenue","location_type":"0","stop_id":"5956","parent_station":null},"geometry":{"type":"Point","coordinates":[-113.627299,53.538222]}},{"type":"Feature","properties":{"stop_url":null,"stop_lat":"53.563074","stop_desc":null,"stop_code":"1533","stop_lon":"-113.503292","zone_id":"1EDM","stop_name":"106 Street & 113 Avenue","location_type":"0","stop_id":"1533","parent_station":null},"geometry":{"type":"Point","coordinates":[-113.503292,53.563074]}},{"type":"Feature","properties":{"stop_url":null,"stop_lat":"53.5429","stop_desc":null,"stop_code":"2346","stop_lon":"-113.449392","zone_id":"1EDM","stop_name":"79 Street & 102 Avenue","location_type":"0","stop_id":"2346","parent_station":null},"geometry":{"type":"Point","coordinates":[-113.449392,53.5429]}},{"type":"Feature","properties":{"stop_url":null,"stop_lat":"53.542308","stop_desc":null,"stop_code":"1196","stop_lon":"-113.484649","zone_id":"1EDM","stop_name":"97 Street & Jasper Avenue","location_type":"0","stop_id":"1196","parent_station":null},"geometry":{"type":"Point","coordinates":[-113.484649,53.542308]}},{"type":"Feature","properties":{"stop_url":null,"stop_lat":"53.687677","stop_desc":null,"stop_code":"1012","stop_lon":"-113.259847","zone_id":"6FST","stop_name":"Westpark Way and Riverpark Road SB","location_type":"0","stop_id":"F1012","parent_station":null},"geometry":{"type":"Point","coordinates":[-113.259847,53.687677]}},{"type":"Feature","properties":{"stop_url":null,"stop_lat":"53.366282","stop_desc":null,"stop_code":"0328","stop_lon":"-113.526099","zone_id":"9LT","stop_name":"5 Street & 30 Avenue","location_type":"0","stop_id":"L0328","parent_station":null},"geometry":{"type":"Point","coordinates":[-113.526099,53.366282]}},{"type":"Feature","properties":{"stop_url":null,"stop_lat":"53.600746","stop_desc":null,"stop_code":"6680","stop_lon":"-113.544103","zone_id":"1EDM","stop_name":"Palisades Square","location_type":"0","stop_id":"6680","parent_station":null},"geometry":{"type":"Point","coordinates":[-113.544103,53.600746]}},{"type":"Feature","properties":{"stop_url":null,"stop_lat":"53.458447","stop_desc":null,"stop_code":null,"stop_lon":"-113.429725","zone_id":"1EDM","stop_name":"Mill Woods Stop","location_type":"1","stop_id":"Q6028","parent_station":null},"geometry":{"type":"Point","coordinates":[-113.429725,53.458447]}},{"type":"Feature","properties":{"stop_url":null,"stop_lat":"53.500508","stop_desc":null,"stop_code":"2741","stop_lon":"-113.504321","zone_id":"1EDM","stop_name":"106 Street & 63 Avenue","location_type":"0","stop_id":"2741","parent_station":null},"geometry":{"type":"Point","coordinates":[-113.504321,53.500508]}},{"type":"Feature","properties":{"stop_url":null,"stop_lat":"53.623317","stop_desc":null,"stop_code":"7315","stop_lon":"-113.461895","zone_id":"1EDM","stop_name":"77 Street & 161A Avenue","location_type":"0","stop_id":"7315","parent_station":null},"geometry":{"type":"Point","coordinates":[-113.461895,53.623317]}},{"type":"Feature","properties":{"stop_url":null,"stop_lat":"53.565657","stop_desc":null,"stop_code":"P0079","stop_lon":"-113.882407","zone_id":"5SGT","stop_name":"Westwind Drive & Kenton Way","location_type":"0","stop_id":"P0079","parent_station":null},"geometry":{"type":"Point","coordinates":[-113.882407,53.565657]}},{"type":"Feature","properties":{"stop_url":null,"stop_lat":"53.493628","stop_desc":null,"stop_code":"8460","stop_lon":"-113.665114","zone_id":"1EDM","stop_name":"199 Street & 62 Avenue","location_type":"0","stop_id":"8460","parent_station":null},"geometry":{"type":"Point","coordinates":[-113.665114,53.493628]}},{"type":"Feature","properties":{"stop_url":null,"stop_lat":"53.532651","stop_desc":null,"stop_code":"1728","stop_lon":"-113.503003","zone_id":"1EDM","stop_name":"106 Street & 96 Avenue","location_type":"0","stop_id":"1728","parent_station":null},"geometry":{"type":"Point","coordinates":[-113.503003,53.532651]}},{"type":"Feature","properties":{"stop_url":null,"stop_lat":"53.636541","stop_desc":null,"stop_code":"7395","stop_lon":"-113.479795","zone_id":"1EDM","stop_name":"91 Street & 175 Avenue","location_type":"0","stop_id":"7395","parent_station":null},"geometry":{"type":"Point","coordinates":[-113.479795,53.636541]}},{"type":"Feature","properties":{"stop_url":null,"stop_lat":"53.51573","stop_desc":null,"stop_code":"2669","stop_lon":"-113.49776","zone_id":"1EDM","stop_name":"104 Street & 80 Avenue","location_type":"0","stop_id":"2669","parent_station":null},"geometry":{"type":"Point","coordinates":[-113.49776,53.51573]}},{"type":"Feature","properties":{"stop_url":null,"stop_lat":"53.461976","stop_desc":null,"stop_code":"4491","stop_lon":"-113.516056","zone_id":"1EDM","stop_name":"111 Street & 29A Avenue","location_type":"0","stop_id":"4491","parent_station":null},"geometry":{"type":"Point","coordinates":[-113.516056,53.461976]}},{"type":"Feature","properties":{"stop_url":null,"stop_lat":"53.516456","stop_desc":null,"stop_code":"5046","stop_lon":"-113.609024","zone_id":"1EDM","stop_name":"167 Street & 83 Avenue","location_type":"0","stop_id":"5046","parent_station":null},"geometry":{"type":"Point","coordinates":[-113.609024,53.516456]}},{"type":"Feature","properties":{"stop_url":null,"stop_lat":"53.546333","stop_desc":null,"stop_code":"1850","stop_lon":"-113.502197","zone_id":"1EDM","stop_name":"105 Street & 104 Avenue","location_type":"0","stop_id":"1850","parent_station":null},"geometry":{"type":"Point","coordinates":[-113.502197,53.546333]}},{"type":"Feature","properties":{"stop_url":null,"stop_lat":"53.489409","stop_desc":null,"stop_code":"5639","stop_lon":"-113.641865","zone_id":"1EDM","stop_name":"184 Street & 54 Avenue","location_type":"0","stop_id":"5639","parent_station":null},"geometry":{"type":"Point","coordinates":[-113.641865,53.489409]}},{"type":"Feature","properties":{"stop_url":null,"stop_lat":"53.488289","stop_desc":null,"stop_code":"2156","stop_lon":"-113.495592","zone_id":"1EDM","stop_name":"Calgary Trail SB & 51 Avenue","location_type":"0","stop_id":"2156","parent_station":null},"geometry":{"type":"Point","coordinates":[-113.495592,53.488289]}},{"type":"Feature","properties":{"stop_url":null,"stop_lat":"53.632805","stop_desc":null,"stop_code":"77612","stop_lon":"-113.460458","zone_id":"1EDM","stop_name":"Schonsee Drive & Schonsee Way","location_type":"0","stop_id":"77612","parent_station":null},"geometry":{"type":"Point","coordinates":[-113.460458,53.632805]}},{"type":"Feature","properties":{"stop_url":null,"stop_lat":"53.48575215658972","stop_desc":null,"stop_code":null,"stop_lon":"-113.51672204192582","zone_id":"1EDM","stop_name":"Southgate Station","location_type":"1","stop_id":"Q5266","parent_station":null},"geometry":{"type":"Point","coordinates":[-113.51672204192582,53.48575215658972]}},{"type":"Feature","properties":{"stop_url":null,"stop_lat":"53.521312","stop_desc":null,"stop_code":"5783","stop_lon":"-113.646668","zone_id":"1EDM","stop_name":"187 Street & 87 Avenue","location_type":"0","stop_id":"5783","parent_station":null},"geometry":{"type":"Point","coordinates":[-113.646668,53.521312]}},{"type":"Feature","properties":{"stop_url":null,"stop_lat":"53.454536","stop_desc":null,"stop_code":"3783","stop_lon":"-113.368898","zone_id":"1EDM","stop_name":"17 Street & 23 Avenue","location_type":"0","stop_id":"3783","parent_station":null},"geometry":{"type":"Point","coordinates":[-113.368898,53.454536]}},{"type":"Feature","properties":{"stop_url":null,"stop_lat":"53.51246","stop_desc":null,"stop_code":"2389","stop_lon":"-113.402018","zone_id":"1EDM","stop_name":"39 Street & 76 Avenue","location_type":"0","stop_id":"2389","parent_station":null},"geometry":{"type":"Point","coordinates":[-113.402018,53.51246]}},{"type":"Feature","properties":{"stop_url":null,"stop_lat":"53.463716","stop_desc":null,"stop_code":"4298","stop_lon":"-113.511372","zone_id":"1EDM","stop_name":"109 Street & 32A Avenue","location_type":"0","stop_id":"4298","parent_station":null},"geometry":{"type":"Point","coordinates":[-113.511372,53.463716]}},{"type":"Feature","properties":{"stop_url":null,"stop_lat":"53.467909","stop_desc":null,"stop_code":"4159","stop_lon":"-113.583069","zone_id":"1EDM","stop_name":"Terwillegar Drive & Rabbit Hill Road","location_type":"0","stop_id":"4159","parent_station":null},"geometry":{"type":"Point","coordinates":[-113.583069,53.467909]}},{"type":"Feature","properties":{"stop_url":null,"stop_lat":"53.514241","stop_desc":null,"stop_code":"6059","stop_lon":"-113.315539","zone_id":"4SCT","stop_name":"Fir St & Ash St","location_type":"0","stop_id":"S6059","parent_station":null},"geometry":{"type":"Point","coordinates":[-113.315539,53.514241]}},{"type":"Feature","properties":{"stop_url":null,"stop_lat":"53.51419","stop_desc":null,"stop_code":"5586","stop_lon":"-113.609256","zone_id":"1EDM","stop_name":"167 Street & 80 Avenue","location_type":"0","stop_id":"5586","parent_station":null},"geometry":{"type":"Point","coordinates":[-113.609256,53.51419]}},{"type":"Feature","properties":{"stop_url":null,"stop_lat":"53.476639","stop_desc":null,"stop_code":"33000","stop_lon":"-113.347986","zone_id":"1EDM","stop_name":"Maple Way & 39 Avenue","location_type":"0","stop_id":"33000","parent_station":null},"geometry":{"type":"Point","coordinates":[-113.347986,53.476639]}},{"type":"Feature","properties":{"stop_url":null,"stop_lat":"53.42497","stop_desc":null,"stop_code":"9444","stop_lon":"-113.519566","zone_id":"1EDM","stop_name":"111 Street & Ellerslie Road SW","location_type":"0","stop_id":"9444","parent_station":null},"geometry":{"type":"Point","coordinates":[-113.519566,53.42497]}},{"type":"Feature","properties":{"stop_url":null,"stop_lat":"53.458555","stop_desc":null,"stop_code":"3006","stop_lon":"-113.444127","zone_id":"1EDM","stop_name":"Lakewood 3006","location_type":"0","stop_id":"3006","parent_station":null},"geometry":{"type":"Point","coordinates":[-113.444127,53.458555]}},{"type":"Feature","properties":{"stop_url":null,"stop_lat":"53.564026","stop_desc":null,"stop_code":"11338","stop_lon":"-113.467404","zone_id":"1EDM","stop_name":"82 Street & 114 Avenue","location_type":"0","stop_id":"11338","parent_station":null},"geometry":{"type":"Point","coordinates":[-113.467404,53.564026]}},{"type":"Feature","properties":{"stop_url":null,"stop_lat":"53.469481","stop_desc":null,"stop_code":"4138","stop_lon":"-113.58629","zone_id":"1EDM","stop_name":"Riverbend Square & Rabbit Hill Road","location_type":"0","stop_id":"4138","parent_station":null},"geometry":{"type":"Point","coordinates":[-113.58629,53.469481]}},{"type":"Feature","properties":{"stop_url":null,"stop_lat":"53.433943","stop_desc":null,"stop_code":"9634","stop_lon":"-113.592785","zone_id":"1EDM","stop_name":"156 Street & Windermere Boulevard  SW","location_type":"0","stop_id":"9634","parent_station":null},"geometry":{"type":"Point","coordinates":[-113.592785,53.433943]}},{"type":"Feature","properties":{"stop_url":null,"stop_lat":"53.62796","stop_desc":null,"stop_code":"6147","stop_lon":"-113.492133","zone_id":"1EDM","stop_name":"97 Street & Castle Downs Road","location_type":"0","stop_id":"6147","parent_station":null},"geometry":{"type":"Point","coordinates":[-113.492133,53.62796]}},{"type":"Feature","properties":{"stop_url":null,"stop_lat":"53.429321","stop_desc":null,"stop_code":"9527","stop_lon":"-113.531474","zone_id":"1EDM","stop_name":"McMillian Way & MacEwan Road SW","location_type":"0","stop_id":"9527","parent_station":null},"geometry":{"type":"Point","coordinates":[-113.531474,53.429321]}},{"type":"Feature","properties":{"stop_url":null,"stop_lat":"53.595012","stop_desc":null,"stop_code":"7696","stop_lon":"-113.400539","zone_id":"1EDM","stop_name":"40 Street & 134 Avenue","location_type":"0","stop_id":"7696","parent_station":null},"geometry":{"type":"Point","coordinates":[-113.400539,53.595012]}},{"type":"Feature","properties":{"stop_url":null,"stop_lat":"53.59132","stop_desc":null,"stop_code":"7862","stop_lon":"-113.382905","zone_id":"1EDM","stop_name":"27 Street & Clareview Road E Ent nearside","location_type":"0","stop_id":"7862","parent_station":null},"geometry":{"type":"Point","coordinates":[-113.382905,53.59132]}},{"type":"Feature","properties":{"stop_url":null,"stop_lat":"53.64827","stop_desc":null,"stop_code":"0823","stop_lon":"-113.631782","zone_id":"2STA","stop_name":"Langholm Dr & Lennox Dr","location_type":"0","stop_id":"A0823","parent_station":null},"geometry":{"type":"Point","coordinates":[-113.631782,53.64827]}},{"type":"Feature","properties":{"stop_url":null,"stop_lat":"53.6281","stop_desc":null,"stop_code":"77426","stop_lon":"-113.406","zone_id":"1EDM","stop_name":"Brintnell Boulevard & 167 Avenue","location_type":"0","stop_id":"77426","parent_station":null},"geometry":{"type":"Point","coordinates":[-113.406,53.6281]}},{"type":"Feature","properties":{"stop_url":null,"stop_lat":"53.615453","stop_desc":null,"stop_code":"0535","stop_lon":"-113.592517","zone_id":"2STA","stop_name":"Nak Transit Station and Park and Ride","location_type":"0","stop_id":"A0535","parent_station":null},"geometry":{"type":"Point","coordinates":[-113.592517,53.615453]}},{"type":"Feature","properties":{"stop_url":null,"stop_lat":"53.48874","stop_desc":null,"stop_code":"2026","stop_lon":"-113.454355","zone_id":"1EDM","stop_name":"86 Street & 51 Avenue","location_type":"0","stop_id":"2026","parent_station":null},"geometry":{"type":"Point","coordinates":[-113.454355,53.48874]}},{"type":"Feature","properties":{"stop_url":null,"stop_lat":"53.549712","stop_desc":null,"stop_code":"2094","stop_lon":"-113.426364","zone_id":"1EDM","stop_name":"59 Street & 106 Avenue","location_type":"0","stop_id":"2094","parent_station":null},"geometry":{"type":"Point","coordinates":[-113.426364,53.549712]}},{"type":"Feature","properties":{"stop_url":null,"stop_lat":"53.621592","stop_desc":null,"stop_code":"7463","stop_lon":"-113.491589","zone_id":"1EDM","stop_name":"97 Street & 160 Avenue","location_type":"0","stop_id":"7463","parent_station":null},"geometry":{"type":"Point","coordinates":[-113.491589,53.621592]}},{"type":"Feature","properties":{"stop_url":null,"stop_lat":"53.489646","stop_desc":null,"stop_code":"28357","stop_lon":"-113.504491","zone_id":"1EDM","stop_name":"106 Street & 53 Avenue","location_type":"0","stop_id":"28357","parent_station":null},"geometry":{"type":"Point","coordinates":[-113.504491,53.489646]}},{"type":"Feature","properties":{"stop_url":null,"stop_lat":"53.472496","stop_desc":null,"stop_code":"3720","stop_lon":"-113.37013","zone_id":"1EDM","stop_name":"Windross Crescent E & 37A Avenue","location_type":"0","stop_id":"3720","parent_station":null},"geometry":{"type":"Point","coordinates":[-113.37013,53.472496]}},{"type":"Feature","properties":{"stop_url":null,"stop_lat":"53.576801","stop_desc":null,"stop_code":"1257","stop_lon":"-113.497835","zone_id":"1EDM","stop_name":"103 Street & 122 Avenue","location_type":"0","stop_id":"1257","parent_station":null},"geometry":{"type":"Point","coordinates":[-113.497835,53.576801]}},{"type":"Feature","properties":{"stop_url":null,"stop_lat":"53.578395","stop_desc":null,"stop_code":"1340","stop_lon":"-113.419003","zone_id":"1EDM","stop_name":"50 Street & 123 Avenue","location_type":"0","stop_id":"1340","parent_station":null},"geometry":{"type":"Point","coordinates":[-113.419003,53.578395]}},{"type":"Feature","properties":{"stop_url":null,"stop_lat":"53.477098","stop_desc":null,"stop_code":"4334","stop_lon":"-113.572022","zone_id":"1EDM","stop_name":"475 Burton Road West","location_type":"0","stop_id":"4334","parent_station":null},"geometry":{"type":"Point","coordinates":[-113.572022,53.477098]}},{"type":"Feature","properties":{"stop_url":null,"stop_lat":"53.51941","stop_desc":null,"stop_code":"5186","stop_lon":"-113.611798","zone_id":"1EDM","stop_name":"169 Street & 87 Avenue","location_type":"0","stop_id":"5186","parent_station":null},"geometry":{"type":"Point","coordinates":[-113.611798,53.51941]}},{"type":"Feature","properties":{"stop_url":null,"stop_lat":"53.536647","stop_desc":null,"stop_code":"5144","stop_lon":"-113.306172","zone_id":"4SCT","stop_name":"Main Blvd & Menlo Cr","location_type":"0","stop_id":"S5144","parent_station":null},"geometry":{"type":"Point","coordinates":[-113.306172,53.536647]}},{"type":"Feature","properties":{"stop_url":null,"stop_lat":"53.601216","stop_desc":null,"stop_code":"E263","stop_lon":"-113.411835","zone_id":null,"stop_name":"South Parkade Entrance","location_type":"2","stop_id":"E263","parent_station":"Q3623"},"geometry":{"type":"Point","coordinates":[-113.411835,53.601216]}},{"type":"Feature","properties":{"stop_url":null,"stop_lat":"53.502755","stop_desc":null,"stop_code":"2500","stop_lon":"-113.418017","zone_id":"1EDM","stop_name":"50 Street & 67 Avenue","location_type":"0","stop_id":"2500","parent_station":null},"geometry":{"type":"Point","coordinates":[-113.418017,53.502755]}},{"type":"Feature","properties":{"stop_url":null,"stop_lat":"53.63481","stop_desc":null,"stop_code":"7116","stop_lon":"-113.47281","zone_id":"1EDM","stop_name":"Klarvatten Road & Klarvatten Court","location_type":"0","stop_id":"7116","parent_station":null},"geometry":{"type":"Point","coordinates":[-113.47281,53.63481]}},{"type":"Feature","properties":{"stop_url":null,"stop_lat":"53.623071","stop_desc":null,"stop_code":"77327","stop_lon":"-113.41827","zone_id":"1EDM","stop_name":"54 Street & 162 Avenue","location_type":"0","stop_id":"77327","parent_station":null},"geometry":{"type":"Point","coordinates":[-113.41827,53.623071]}},{"type":"Feature","properties":{"stop_url":null,"stop_lat":"53.519525","stop_desc":null,"stop_code":"5450","stop_lon":"-113.586747","zone_id":"1EDM","stop_name":"154 Street & 87 Avenue","location_type":"0","stop_id":"5450","parent_station":null},"geometry":{"type":"Point","coordinates":[-113.586747,53.519525]}},{"type":"Feature","properties":{"stop_url":null,"stop_lat":"53.618898","stop_desc":null,"stop_code":"7176","stop_lon":"-113.440202","zone_id":"1EDM","stop_name":"64 Street & 157 Avenue","location_type":"0","stop_id":"7176","parent_station":null},"geometry":{"type":"Point","coordinates":[-113.440202,53.618898]}},{"type":"Feature","properties":{"stop_url":null,"stop_lat":"53.451026","stop_desc":null,"stop_code":"3179","stop_lon":"-113.400288","zone_id":"1EDM","stop_name":"38 Street & 20 Avenue","location_type":"0","stop_id":"3179","parent_station":null},"geometry":{"type":"Point","coordinates":[-113.400288,53.451026]}},{"type":"Feature","properties":{"stop_url":null,"stop_lat":"53.541326","stop_desc":null,"stop_code":"2158","stop_lon":"-113.394538","zone_id":"4SCT","stop_name":"34 Street & 101 Avenue","location_type":"0","stop_id":"S2158","parent_station":null},"geometry":{"type":"Point","coordinates":[-113.394538,53.541326]}},{"type":"Feature","properties":{"stop_url":null,"stop_lat":"53.650343","stop_desc":null,"stop_code":"0459","stop_lon":"-113.594498","zone_id":"2STA","stop_name":"SWC Ave & Waverly Dr","location_type":"0","stop_id":"A0459","parent_station":null},"geometry":{"type":"Point","coordinates":[-113.594498,53.650343]}},{"type":"Feature","properties":{"stop_url":null,"stop_lat":"53.614552","stop_desc":null,"stop_code":"6856","stop_lon":"-113.559514","zone_id":"1EDM","stop_name":"139 Street & 153 Avenue","location_type":"0","stop_id":"6856","parent_station":null},"geometry":{"type":"Point","coordinates":[-113.559514,53.614552]}},{"type":"Feature","properties":{"stop_url":null,"stop_lat":"53.576813","stop_desc":null,"stop_code":"5215","stop_lon":"-113.567049","zone_id":"1EDM","stop_name":"142 Street & 123 Avenue","location_type":"0","stop_id":"5215","parent_station":null},"geometry":{"type":"Point","coordinates":[-113.567049,53.576813]}},{"type":"Feature","properties":{"stop_url":null,"stop_lat":"53.607161","stop_desc":null,"stop_code":"7883","stop_lon":"-113.417317","zone_id":"1EDM","stop_name":"50 Street & 144 Avenue","location_type":"0","stop_id":"7883","parent_station":null},"geometry":{"type":"Point","coordinates":[-113.417317,53.607161]}},{"type":"Feature","properties":{"stop_url":null,"stop_lat":"53.606804","stop_desc":null,"stop_code":"7046","stop_lon":"-113.462909","zone_id":"1EDM","stop_name":"79 Street & 144 Avenue","location_type":"0","stop_id":"7046","parent_station":null},"geometry":{"type":"Point","coordinates":[-113.462909,53.606804]}},{"type":"Feature","properties":{"stop_url":null,"stop_lat":"53.533433","stop_desc":null,"stop_code":"5024","stop_lon":"-113.630536","zone_id":"1EDM","stop_name":"180 Street & 98 Avenue","location_type":"0","stop_id":"5024","parent_station":null},"geometry":{"type":"Point","coordinates":[-113.630536,53.533433]}},{"type":"Feature","properties":{"stop_url":null,"stop_lat":"53.619749","stop_desc":null,"stop_code":"6030","stop_lon":"-113.503913","zone_id":"1EDM","stop_name":"Beaumaris Road & Stirling Road","location_type":"0","stop_id":"6030","parent_station":null},"geometry":{"type":"Point","coordinates":[-113.503913,53.619749]}},{"type":"Feature","properties":{"stop_url":null,"stop_lat":"53.454053","stop_desc":null,"stop_code":"4593","stop_lon":"-113.526082","zone_id":"1EDM","stop_name":"Saddleback Road & 23 Avenue","location_type":"0","stop_id":"4593","parent_station":null},"geometry":{"type":"Point","coordinates":[-113.526082,53.454053]}},{"type":"Feature","properties":{"stop_url":null,"stop_lat":"53.412221","stop_desc":null,"stop_code":"9786","stop_lon":"-113.454199","zone_id":"1EDM","stop_name":"74 Street & 22 Avenue SW","location_type":"0","stop_id":"9786","parent_station":null},"geometry":{"type":"Point","coordinates":[-113.454199,53.412221]}},{"type":"Feature","properties":{"stop_url":null,"stop_lat":"53.428714","stop_desc":null,"stop_code":"9288","stop_lon":"-113.422236","zone_id":"1EDM","stop_name":"52 Street & 4 Avenue SW","location_type":"0","stop_id":"9288","parent_station":null},"geometry":{"type":"Point","coordinates":[-113.422236,53.428714]}},{"type":"Feature","properties":{"stop_url":null,"stop_lat":"53.614309","stop_desc":null,"stop_code":"0360","stop_lon":"-113.620094","zone_id":"2STA","stop_name":"Levasseur Road & Grandin Road","location_type":"0","stop_id":"A0360","parent_station":null},"geometry":{"type":"Point","coordinates":[-113.620094,53.614309]}},{"type":"Feature","properties":{"stop_url":null,"stop_lat":"53.439862","stop_desc":null,"stop_code":"4640","stop_lon":"-113.556225","zone_id":"1EDM","stop_name":"MacTaggart Drive & MacTaggart Place","location_type":"0","stop_id":"4640","parent_station":null},"geometry":{"type":"Point","coordinates":[-113.556225,53.439862]}},{"type":"Feature","properties":{"stop_url":null,"stop_lat":"53.55072","stop_desc":null,"stop_code":"5550","stop_lon":"-113.590517","zone_id":"1EDM","stop_name":"156 Street & 107 Avenue","location_type":"0","stop_id":"5550","parent_station":null},"geometry":{"type":"Point","coordinates":[-113.590517,53.55072]}},{"type":"Feature","properties":{"stop_url":null,"stop_lat":"53.638997","stop_desc":null,"stop_code":"0875","stop_lon":"-113.592715","zone_id":"2STA","stop_name":"Parkwood Dr & Primeau Lane","location_type":"0","stop_id":"A0875","parent_station":null},"geometry":{"type":"Point","coordinates":[-113.592715,53.638997]}},{"type":"Feature","properties":{"stop_url":null,"stop_lat":"53.468046","stop_desc":null,"stop_code":"4073","stop_lon":"-113.580269","zone_id":"1EDM","stop_name":"Terwillegar Drive & Rabbit Hill Road","location_type":"0","stop_id":"4073","parent_station":null},"geometry":{"type":"Point","coordinates":[-113.580269,53.468046]}},{"type":"Feature","properties":{"stop_url":null,"stop_lat":"53.628045","stop_desc":null,"stop_code":"6497","stop_lon":"-113.541484","zone_id":"1EDM","stop_name":"127 Street & 167 Avenue","location_type":"0","stop_id":"6497","parent_station":null},"geometry":{"type":"Point","coordinates":[-113.541484,53.628045]}},{"type":"Feature","properties":{"stop_url":null,"stop_lat":"53.570801","stop_desc":null,"stop_code":"E204","stop_lon":"-113.457755","zone_id":null,"stop_name":"Coliseum Elevator","location_type":"2","stop_id":"E204","parent_station":"Q3621"},"geometry":{"type":"Point","coordinates":[-113.457755,53.570801]}},{"type":"Feature","properties":{"stop_url":null,"stop_lat":"53.445615","stop_desc":null,"stop_code":"3061","stop_lon":"-113.442231","zone_id":"1EDM","stop_name":"Knottwood Road E & Mill Woods Road S","location_type":"0","stop_id":"3061","parent_station":null},"geometry":{"type":"Point","coordinates":[-113.442231,53.445615]}},{"type":"Feature","properties":{"stop_url":null,"stop_lat":"53.416447","stop_desc":null,"stop_code":"9186","stop_lon":"-113.565542","zone_id":"1EDM","stop_name":"141 Street & Hays Ridge Boulevard SW","location_type":"0","stop_id":"9186","parent_station":null},"geometry":{"type":"Point","coordinates":[-113.565542,53.416447]}},{"type":"Feature","properties":{"stop_url":null,"stop_lat":"53.576696","stop_desc":null,"stop_code":"5404","stop_lon":"-113.577183","zone_id":"1EDM","stop_name":"149 Street & 123 Avenue","location_type":"0","stop_id":"5404","parent_station":null},"geometry":{"type":"Point","coordinates":[-113.577183,53.576696]}},{"type":"Feature","properties":{"stop_url":null,"stop_lat":"53.471432","stop_desc":null,"stop_code":"3581","stop_lon":"-113.422483","zone_id":"1EDM","stop_name":"55 Street & 38 Avenue","location_type":"0","stop_id":"3581","parent_station":null},"geometry":{"type":"Point","coordinates":[-113.422483,53.471432]}},{"type":"Feature","properties":{"stop_url":null,"stop_lat":"53.562832","stop_desc":null,"stop_code":"5235","stop_lon":"-113.578206","zone_id":"1EDM","stop_name":"149 Street & 114 Avenue","location_type":"0","stop_id":"5235","parent_station":null},"geometry":{"type":"Point","coordinates":[-113.578206,53.562832]}},{"type":"Feature","properties":{"stop_url":null,"stop_lat":"53.309932","stop_desc":null,"stop_code":"0300","stop_lon":"-113.530541","zone_id":"9LT","stop_name":"Leduc County Centre","location_type":"0","stop_id":"L0300","parent_station":null},"geometry":{"type":"Point","coordinates":[-113.530541,53.309932]}},{"type":"Feature","properties":{"stop_url":null,"stop_lat":"53.618023","stop_desc":null,"stop_code":"6304","stop_lon":"-113.490503","zone_id":"1EDM","stop_name":"Eaux Claires Transit Centre Bay D","location_type":"0","stop_id":"6304","parent_station":null},"geometry":{"type":"Point","coordinates":[-113.490503,53.618023]}},{"type":"Feature","properties":{"stop_url":null,"stop_lat":"53.537956","stop_desc":null,"stop_code":"7199","stop_lon":"-113.261432","zone_id":"4SCT","stop_name":"Highland Wy & Heritage Dr","location_type":"0","stop_id":"S7199","parent_station":null},"geometry":{"type":"Point","coordinates":[-113.261432,53.537956]}},{"type":"Feature","properties":{"stop_url":null,"stop_lat":"53.596367","stop_desc":null,"stop_code":"6442","stop_lon":"-113.540484","zone_id":"1EDM","stop_name":"127 Street & 135 Avenue","location_type":"0","stop_id":"6442","parent_station":null},"geometry":{"type":"Point","coordinates":[-113.540484,53.596367]}},{"type":"Feature","properties":{"stop_url":null,"stop_lat":"53.429895","stop_desc":null,"stop_code":"9683","stop_lon":"-113.461118","zone_id":"1EDM","stop_name":"83 Street & Edwards Drive SW","location_type":"0","stop_id":"9683","parent_station":null},"geometry":{"type":"Point","coordinates":[-113.461118,53.429895]}},{"type":"Feature","properties":{"stop_url":null,"stop_lat":"53.463125","stop_desc":null,"stop_code":"3311","stop_lon":"-113.368936","zone_id":"1EDM","stop_name":"17 Street & Silver Berry Road","location_type":"0","stop_id":"3311","parent_station":null},"geometry":{"type":"Point","coordinates":[-113.368936,53.463125]}},{"type":"Feature","properties":{"stop_url":null,"stop_lat":"53.637769","stop_desc":null,"stop_code":"6105","stop_lon":"-113.528988","zone_id":"1EDM","stop_name":"120 Street & 175 Avenue","location_type":"0","stop_id":"6105","parent_station":null},"geometry":{"type":"Point","coordinates":[-113.528988,53.637769]}},{"type":"Feature","properties":{"stop_url":null,"stop_lat":"53.523401","stop_desc":null,"stop_code":"6156","stop_lon":"-113.295225","zone_id":"4SCT","stop_name":"Raven Dr & Brentwood Blvd","location_type":"0","stop_id":"S6156","parent_station":null},"geometry":{"type":"Point","coordinates":[-113.295225,53.523401]}},{"type":"Feature","properties":{"stop_url":null,"stop_lat":"53.612327","stop_desc":null,"stop_code":"6247","stop_lon":"-113.546201","zone_id":"1EDM","stop_name":"130 Street & 150 Avenue","location_type":"0","stop_id":"6247","parent_station":null},"geometry":{"type":"Point","coordinates":[-113.546201,53.612327]}},